Id;Name; Latitude ; Longitude ;Height (m);Active;PrecipStation;PrecipLink
173010;Aapua;66.87;23.5;210;No;5-173010-Aapua.csv;https://opendata-download-metobs.smhi.se/api/version/1.0/parameter/5/station/173010/period/corrected-archive/data.csv
157010;Abborrberg;65.48;16.6;550;No;5-157010-Abborrberg.csv;https://opendata-download-metobs.smhi.se/api/version/1.0/parameter/5/station/157010/period/corrected-archive/data.csv
154860;Abelvattnet Aut;65.53;14.97;665;No;5-154860-Abelvattnet_Aut.csv;https://opendata-download-metobs.smhi.se/api/version/1.0/parameter/5/station/154860/period/corrected-archive/data.csv
62570;Abild;56.95;12.79;145;No;5-62570-Abild.csv;https://opendata-download-metobs.smhi.se/api/version/1.0/parameter/5/station/62570/period/corrected-archive/data.csv
188800;Abisko;68.35;18.82;393.38;Yes;5-188800-Abisko.csv;https://opendata-download-metobs.smhi.se/api/version/1.0/parameter/5/station/188800/period/corrected-archive/data.csv
188790;Abisko Aut;68.35;18.82;392,303;Yes;5-188790-Abisko_Aut.csv;https://opendata-download-metobs.smhi.se/api/version/1.0/parameter/5/station/188790/period/corrected-archive/data.csv
158990;Abraur;65.99;18.92;368,079;Yes;5-158990-Abraur.csv;https://opendata-download-metobs.smhi.se/api/version/1.0/parameter/5/station/158990/period/corrected-archive/data.csv
158820;Adak;65.35;18.58;408;Yes;5-158820-Adak.csv;https://opendata-download-metobs.smhi.se/api/version/1.0/parameter/5/station/158820/period/corrected-archive/data.csv
76510;Adelsberg;57.87;16.07;125;No;5-76510-Adelsberg.csv;https://opendata-download-metobs.smhi.se/api/version/1.0/parameter/5/station/76510/period/corrected-archive/data.csv
85600;Adelsnäs;58.2;15.98;97;No;5-85600-Adelsnäs.csv;https://opendata-download-metobs.smhi.se/api/version/1.0/parameter/5/station/85600/period/corrected-archive/data.csv
97280;Adelsö A;59.36;17.52;5,612;Yes;5-97280-Adelsö_A.csv;https://opendata-download-metobs.smhi.se/api/version/1.0/parameter/5/station/97280/period/corrected-archive/data.csv
92480;Adolfsfors;59.8;12.23;125;No;5-92480-Adolfsfors.csv;https://opendata-download-metobs.smhi.se/api/version/1.0/parameter/5/station/92480/period/corrected-archive/data.csv
117330;Agö;61.55;17.47;20;No;5-117330-Agö.csv;https://opendata-download-metobs.smhi.se/api/version/1.0/parameter/5/station/117330/period/corrected-archive/data.csv
178740;Acts;67.15;18.31;530;No;5-178740-Acts.csv;https://opendata-download-metobs.smhi.se/api/version/1.0/parameter/5/station/178740/period/corrected-archive/data.csv
72560;Alingsås D;57.89;12.55;72,054;Yes;5-72560-Alingsås_D.csv;https://opendata-download-metobs.smhi.se/api/version/1.0/parameter/5/station/72560/period/corrected-archive/data.csv
180790;Allavaara;67.26;20.12;480;No;5-180790-Allavaara.csv;https://opendata-download-metobs.smhi.se/api/version/1.0/parameter/5/station/180790/period/corrected-archive/data.csv
75040;Allgunnen;57.07;15.97;115;No;5-75040-Allgunnen.csv;https://opendata-download-metobs.smhi.se/api/version/1.0/parameter/5/station/75040/period/corrected-archive/data.csv
134590;Almdalen;64;14.67;615;Yes;5-134590-Almdalen.csv;https://opendata-download-metobs.smhi.se/api/version/1.0/parameter/5/station/134590/period/corrected-archive/data.csv
98560;Almunge;59.93;18.04;18,689;No;5-98560-Almunge.csv;https://opendata-download-metobs.smhi.se/api/version/1.0/parameter/5/station/98560/period/corrected-archive/data.csv
53640;Alnarp;55.65;13.08;10;No;5-53640-Alnarp.csv;https://opendata-download-metobs.smhi.se/api/version/1.0/parameter/5/station/53640/period/corrected-archive/data.csv
53390;Alnarp Fruit Department;55.66;13.09;10;No;5-53390-Alnarp_Fruit_Department.csv;https://opendata-download-metobs.smhi.se/api/version/1.0/parameter/5/station/53390/period/corrected-archive/data.csv
53750;Alnarp intermediate farm;55.66;13.05;5;No;5-53750-Alnarp_intermediate_farm.csv;https://opendata-download-metobs.smhi.se/api/version/1.0/parameter/5/station/53750/period/corrected-archive/data.csv
93720;Alstrum;59.48;13.6;70;No;5-93720-Alstrum.csv;https://opendata-download-metobs.smhi.se/api/version/1.0/parameter/5/station/93720/period/corrected-archive/data.csv
178790;Aluokta;67.31;18.9;385;No;5-178790-Aluokta.csv;https://opendata-download-metobs.smhi.se/api/version/1.0/parameter/5/station/178790/period/corrected-archive/data.csv
82000;Alvhem;58.01;12.15;5;No;5-82000-Alvhem.csv;https://opendata-download-metobs.smhi.se/api/version/1.0/parameter/5/station/82000/period/corrected-archive/data.csv
73250;Ambjörnarp;57.42;13.28;220;Nej;5-73250-Ambjörnarp.csv;https://opendata-download-metobs.smhi.se/api/version/1.0/parameter/5/station/73250/period/corrected-archive/data.csv
156990;Ammarnäs D;65.96;16.22;420;Nej;5-156990-Ammarnäs_D.csv;https://opendata-download-metobs.smhi.se/api/version/1.0/parameter/5/station/156990/period/corrected-archive/data.csv
103220;Andersviksberg;60.37;13.87;420;Nej;5-103220-Andersviksberg.csv;https://opendata-download-metobs.smhi.se/api/version/1.0/parameter/5/station/103220/period/corrected-archive/data.csv
74730;Aneboda 1;57.12;14.57;188;Nej;5-74730-Aneboda_1.csv;https://opendata-download-metobs.smhi.se/api/version/1.0/parameter/5/station/74730/period/corrected-archive/data.csv
74600;Aneboda 2;57.12;14.56;195;Nej;5-74600-Aneboda_2.csv;https://opendata-download-metobs.smhi.se/api/version/1.0/parameter/5/station/74600/period/corrected-archive/data.csv
74510;Aneby;57.82;14.89;240;Nej;5-74510-Aneby.csv;https://opendata-download-metobs.smhi.se/api/version/1.0/parameter/5/station/74510/period/corrected-archive/data.csv
76410;Ankarsrum D;57.68;16.19;96.501;Ja;5-76410-Ankarsrum_D.csv;https://opendata-download-metobs.smhi.se/api/version/1.0/parameter/5/station/76410/period/corrected-archive/data.csv
144530;Ankarvattnet D;64.88;14.23;460;Ja;5-144530-Ankarvattnet_D.csv;https://opendata-download-metobs.smhi.se/api/version/1.0/parameter/5/station/144530/period/corrected-archive/data.csv
95230;Arboga;59.38;15.83;50;Nej;5-95230-Arboga.csv;https://opendata-download-metobs.smhi.se/api/version/1.0/parameter/5/station/95230/period/corrected-archive/data.csv
116600;Arbrå;61.48;16.38;120;Nej;5-116600-Arbrå.csv;https://opendata-download-metobs.smhi.se/api/version/1.0/parameter/5/station/116600/period/corrected-archive/data.csv
167710;Arjeplog A;66.05;17.84;430.839;Ja;5-167710-Arjeplog_A.csv;https://opendata-download-metobs.smhi.se/api/version/1.0/parameter/5/station/167710/period/corrected-archive/data.csv
158980;Arjeplog-Myrheden D;65.98;18.22;450.325;Ja;5-158980-Arjeplog-Myrheden_D.csv;https://opendata-download-metobs.smhi.se/api/version/1.0/parameter/5/station/158980/period/corrected-archive/data.csv
97390;Arlanda;59.66;17.92;26;Nej;5-97390-Arlanda.csv;https://opendata-download-metobs.smhi.se/api/version/1.0/parameter/5/station/97390/period/corrected-archive/data.csv
53770;Arlöv sockerbruk;55.63;13.07;3;Nej;5-53770-Arlöv_sockerbruk.csv;https://opendata-download-metobs.smhi.se/api/version/1.0/parameter/5/station/53770/period/corrected-archive/data.csv
159880;Arvidsjaur A;65.59;19.26;382.45;Ja;5-159880-Arvidsjaur_A.csv;https://opendata-download-metobs.smhi.se/api/version/1.0/parameter/5/station/159880/period/corrected-archive/data.csv
92400;Arvika;59.67;12.59;77;Nej;5-92400-Arvika.csv;https://opendata-download-metobs.smhi.se/api/version/1.0/parameter/5/station/92400/period/corrected-archive/data.csv
92410;Arvika A;59.67;12.64;65.758;Ja;5-92410-Arvika_A.csv;https://opendata-download-metobs.smhi.se/api/version/1.0/parameter/5/station/92410/period/corrected-archive/data.csv
92430;Arvika sanatorium;59.67;12.62;70;Nej;5-92430-Arvika_sanatorium.csv;https://opendata-download-metobs.smhi.se/api/version/1.0/parameter/5/station/92430/period/corrected-archive/data.csv
75280;Arvingetorp;57.45;15.03;210;Nej;5-75280-Arvingetorp.csv;https://opendata-download-metobs.smhi.se/api/version/1.0/parameter/5/station/75280/period/corrected-archive/data.csv
97630;Aske;59.62;17.65;15;Nej;5-97630-Aske.csv;https://opendata-download-metobs.smhi.se/api/version/1.0/parameter/5/station/97630/period/corrected-archive/data.csv
95100;Asker D;59.16;15.46;37.648;Ja;5-95100-Asker_D.csv;https://opendata-download-metobs.smhi.se/api/version/1.0/parameter/5/station/95100/period/corrected-archive/data.csv
84660;Askersund;58.88;14.9;100;Nej;5-84660-Askersund.csv;https://opendata-download-metobs.smhi.se/api/version/1.0/parameter/5/station/84660/period/corrected-archive/data.csv
75480;Askeryd;57.81;14.99;250;Nej;5-75480-Askeryd.csv;https://opendata-download-metobs.smhi.se/api/version/1.0/parameter/5/station/75480/period/corrected-archive/data.csv
72620;Askim D;57.63;11.96;88.33;Ja;5-72620-Askim_D.csv;https://opendata-download-metobs.smhi.se/api/version/1.0/parameter/5/station/72620/period/corrected-archive/data.csv
52530;Asmundtorp;55.88;12.95;15;Nej;5-52530-Asmundtorp.csv;https://opendata-download-metobs.smhi.se/api/version/1.0/parameter/5/station/52530/period/corrected-archive/data.csv
87600;Aspa D;58.93;17.1;26.636;Ja;5-87600-Aspa_D.csv;https://opendata-download-metobs.smhi.se/api/version/1.0/parameter/5/station/87600/period/corrected-archive/data.csv
84670;Aspa bruk;58.77;14.8;95;Nej;5-84670-Aspa_bruk.csv;https://opendata-download-metobs.smhi.se/api/version/1.0/parameter/5/station/84670/period/corrected-archive/data.csv
137220;Aspeå;63.4;17.49;255.8;Ja;5-137220-Aspeå.csv;https://opendata-download-metobs.smhi.se/api/version/1.0/parameter/5/station/137220/period/corrected-archive/data.csv
94370;Asphyttan;59.61;14.19;130;Nej;5-94370-Asphyttan.csv;https://opendata-download-metobs.smhi.se/api/version/1.0/parameter/5/station/94370/period/corrected-archive/data.csv
78480;Austers D;57.81;18.63;29.205;Ja;5-78480-Austers_D.csv;https://opendata-download-metobs.smhi.se/api/version/1.0/parameter/5/station/78480/period/corrected-archive/data.csv
145500;Avasjö-Borgafjäll D;64.83;15.07;535.286;Ja;5-145500-Avasjö-Borgafjäll_D.csv;https://opendata-download-metobs.smhi.se/api/version/1.0/parameter/5/station/145500/period/corrected-archive/data.csv
106070;Avesta;60.14;16.17;99.043;Ja;5-106070-Avesta.csv;https://opendata-download-metobs.smhi.se/api/version/1.0/parameter/5/station/106070/period/corrected-archive/data.csv
73270;Axelfors;57.45;13.1;150;Nej;5-73270-Axelfors.csv;https://opendata-download-metobs.smhi.se/api/version/1.0/parameter/5/station/73270/period/corrected-archive/data.csv
84340;Axstål Mo;58.57;14.56;88.5;Ja;5-84340-Axstål_Mo.csv;https://opendata-download-metobs.smhi.se/api/version/1.0/parameter/5/station/84340/period/corrected-archive/data.csv
105550;Backa;60.92;15.11;230;Nej;5-105550-Backa.csv;https://opendata-download-metobs.smhi.se/api/version/1.0/parameter/5/station/105550/period/corrected-archive/data.csv
117710;Backarna;61.57;16.3;185;Nej;5-117710-Backarna.csv;https://opendata-download-metobs.smhi.se/api/version/1.0/parameter/5/station/117710/period/corrected-archive/data.csv
136490;Backe D;63.81;16.4;214.569;Ja;5-136490-Backe_D.csv;https://opendata-download-metobs.smhi.se/api/version/1.0/parameter/5/station/136490/period/corrected-archive/data.csv
127580;Badstuguhöjden;62.9;17.27;380;Nej;5-127580-Badstuguhöjden.csv;https://opendata-download-metobs.smhi.se/api/version/1.0/parameter/5/station/127580/period/corrected-archive/data.csv
63550;Bakarebo D;56.9;13.7;145;Ja;5-63550-Bakarebo_D.csv;https://opendata-download-metobs.smhi.se/api/version/1.0/parameter/5/station/63550/period/corrected-archive/data.csv
132420;Baksjönäset;63.71;12.65;425;Nej;5-132420-Baksjönäset.csv;https://opendata-download-metobs.smhi.se/api/version/1.0/parameter/5/station/132420/period/corrected-archive/data.csv
166840;Ballastviken;66.49;16.53;470;Nej;5-166840-Ballastviken.csv;https://opendata-download-metobs.smhi.se/api/version/1.0/parameter/5/station/166840/period/corrected-archive/data.csv
139570;Balsjö D;63.92;19.07;200;Ja;5-139570-Balsjö_D.csv;https://opendata-download-metobs.smhi.se/api/version/1.0/parameter/5/station/139570/period/corrected-archive/data.csv
62220;Baramossa;56.38;12.99;196.703;Ja;5-62220-Baramossa.csv;https://opendata-download-metobs.smhi.se/api/version/1.0/parameter/5/station/62220/period/corrected-archive/data.csv
97260;Barkarby;59.42;17.88;17;Nej;5-97260-Barkarby.csv;https://opendata-download-metobs.smhi.se/api/version/1.0/parameter/5/station/97260/period/corrected-archive/data.csv
62180;Barkåkra;56.29;12.85;20;Nej;5-62180-Barkåkra.csv;https://opendata-download-metobs.smhi.se/api/version/1.0/parameter/5/station/62180/period/corrected-archive/data.csv
52610;Barsebäck;55.77;12.95;10;Nej;5-52610-Barsebäck.csv;https://opendata-download-metobs.smhi.se/api/version/1.0/parameter/5/station/52610/period/corrected-archive/data.csv
156230;Bastansjö D;65.38;16.2;499.583;Ja;5-156230-Bastansjö_D.csv;https://opendata-download-metobs.smhi.se/api/version/1.0/parameter/5/station/156230/period/corrected-archive/data.csv
82540;Bastorp;58.9;12.04;150;Nej;5-82540-Bastorp.csv;https://opendata-download-metobs.smhi.se/api/version/1.0/parameter/5/station/82540/period/corrected-archive/data.csv
98410;Beateberg;59.66;18.42;40;Nej;5-98410-Beateberg.csv;https://opendata-download-metobs.smhi.se/api/version/1.0/parameter/5/station/98410/period/corrected-archive/data.csv
53190;Beddingestrand;55.36;13.43;5.04;Nej;5-53190-Beddingestrand.csv;https://opendata-download-metobs.smhi.se/api/version/1.0/parameter/5/station/53190/period/corrected-archive/data.csv
92040;Bengtsfors;59.03;12.24;120;Ja;5-92040-Bengtsfors.csv;https://opendata-download-metobs.smhi.se/api/version/1.0/parameter/5/station/92040/period/corrected-archive/data.csv
125470;Bensjö;62.71;15.47;310;Nej;5-125470-Bensjö.csv;https://opendata-download-metobs.smhi.se/api/version/1.0/parameter/5/station/125470/period/corrected-archive/data.csv
74080;Berg;57.12;14.69;250;Ja;5-74080-Berg.csv;https://opendata-download-metobs.smhi.se/api/version/1.0/parameter/5/station/74080/period/corrected-archive/data.csv
98610;Berga;59.08;18.12;15;Nej;5-98610-Berga.csv;https://opendata-download-metobs.smhi.se/api/version/1.0/parameter/5/station/98610/period/corrected-archive/data.csv
98040;Berga Mo;59.07;18.12;4.3;Ja;5-98040-Berga_Mo.csv;https://opendata-download-metobs.smhi.se/api/version/1.0/parameter/5/station/98040/period/corrected-archive/data.csv
97130;Bergaholm;59.23;17.72;30;Nej;5-97130-Bergaholm.csv;https://opendata-download-metobs.smhi.se/api/version/1.0/parameter/5/station/97130/period/corrected-archive/data.csv
189740;Bergfors;68.15;19.8;480;Nej;5-189740-Bergfors.csv;https://opendata-download-metobs.smhi.se/api/version/1.0/parameter/5/station/189740/period/corrected-archive/data.csv
158900;Bergnäsudden;65.67;18.15;420;Nej;5-158900-Bergnäsudden.csv;https://opendata-download-metobs.smhi.se/api/version/1.0/parameter/5/station/158900/period/corrected-archive/data.csv
82370;Bergs säteri;58.72;12.48;55;Nej;5-82370-Bergs_säteri.csv;https://opendata-download-metobs.smhi.se/api/version/1.0/parameter/5/station/82370/period/corrected-archive/data.csv
117570;Bergsjö;61.95;17.07;55;Ja;5-117570-Bergsjö.csv;https://opendata-download-metobs.smhi.se/api/version/1.0/parameter/5/station/117570/period/corrected-archive/data.csv
158600;Bergvattnet;65.02;18.25;320;Nej;5-158600-Bergvattnet.csv;https://opendata-download-metobs.smhi.se/api/version/1.0/parameter/5/station/158600/period/corrected-archive/data.csv
116160;Bergvik;61.26;16.84;50;Nej;5-116160-Bergvik.csv;https://opendata-download-metobs.smhi.se/api/version/1.0/parameter/5/station/116160/period/corrected-archive/data.csv
95600;Bernshammar;59.67;15.76;60;Nej;5-95600-Bernshammar.csv;https://opendata-download-metobs.smhi.se/api/version/1.0/parameter/5/station/95600/period/corrected-archive/data.csv
86160;Bersbo;58.26;16.04;100;Nej;5-86160-Bersbo.csv;https://opendata-download-metobs.smhi.se/api/version/1.0/parameter/5/station/86160/period/corrected-archive/data.csv
96610;Bie;59.08;16.21;21;Nej;5-96610-Bie.csv;https://opendata-download-metobs.smhi.se/api/version/1.0/parameter/5/station/96610/period/corrected-archive/data.csv
155950;Biellojaure;65.8;15.72;600;Nej;5-155950-Biellojaure.csv;https://opendata-download-metobs.smhi.se/api/version/1.0/parameter/5/station/155950/period/corrected-archive/data.csv
82590;Billingsfors;58.99;12.26;85;Nej;5-82590-Billingsfors.csv;https://opendata-download-metobs.smhi.se/api/version/1.0/parameter/5/station/82590/period/corrected-archive/data.csv
62240;Bingsgärde;56.4;12.97;202;Nej;5-62240-Bingsgärde.csv;https://opendata-download-metobs.smhi.se/api/version/1.0/parameter/5/station/62240/period/corrected-archive/data.csv
136020;Bispgården;63.02;16.63;168.062;Ja;5-136020-Bispgården.csv;https://opendata-download-metobs.smhi.se/api/version/1.0/parameter/5/station/136020/period/corrected-archive/data.csv
106080;Bjurfors;60.13;16.13;125;Nej;5-106080-Bjurfors.csv;https://opendata-download-metobs.smhi.se/api/version/1.0/parameter/5/station/106080/period/corrected-archive/data.csv
139560;Bjurholm;63.93;19.22;178;Nej;5-139560-Bjurholm.csv;https://opendata-download-metobs.smhi.se/api/version/1.0/parameter/5/station/139560/period/corrected-archive/data.csv
105470;Bjursås;60.74;15.46;227.889;Ja;5-105470-Bjursås.csv;https://opendata-download-metobs.smhi.se/api/version/1.0/parameter/5/station/105470/period/corrected-archive/data.csv
105460;Bjursås-Sågsbo;60.77;15.38;400;Nej;5-105460-Bjursås-Sågsbo.csv;https://opendata-download-metobs.smhi.se/api/version/1.0/parameter/5/station/105460/period/corrected-archive/data.csv
138710;Bjurvattnet;63.88;18.95;225;Nej;5-138710-Bjurvattnet.csv;https://opendata-download-metobs.smhi.se/api/version/1.0/parameter/5/station/138710/period/corrected-archive/data.csv
116650;Bjuråker;61.85;16.58;66;Nej;5-116650-Bjuråker.csv;https://opendata-download-metobs.smhi.se/api/version/1.0/parameter/5/station/116650/period/corrected-archive/data.csv
151290;Bjuröklubb;64.48;21.58;36;Nej;5-151290-Bjuröklubb.csv;https://opendata-download-metobs.smhi.se/api/version/1.0/parameter/5/station/151290/period/corrected-archive/data.csv
151280;Bjuröklubb A;64.48;21.58;35.41;Ja;5-151280-Bjuröklubb_A.csv;https://opendata-download-metobs.smhi.se/api/version/1.0/parameter/5/station/151280/period/corrected-archive/data.csv
62050;Bjuv D;56.1;12.89;15;Nej;5-62050-Bjuv_D.csv;https://opendata-download-metobs.smhi.se/api/version/1.0/parameter/5/station/62050/period/corrected-archive/data.csv
62730;Bjärbolund;56.18;12.77;7;Nej;5-62730-Bjärbolund.csv;https://opendata-download-metobs.smhi.se/api/version/1.0/parameter/5/station/62730/period/corrected-archive/data.csv
66440;Bjärby D;56.71;16.71;7;Nej;5-66440-Bjärby_D.csv;https://opendata-download-metobs.smhi.se/api/version/1.0/parameter/5/station/66440/period/corrected-archive/data.csv
85160;Bjärka-Säby;58.27;15.74;100;Nej;5-85160-Bjärka-Säby.csv;https://opendata-download-metobs.smhi.se/api/version/1.0/parameter/5/station/85160/period/corrected-archive/data.csv
63180;Bjärnum D;56.29;13.74;79.897;Ja;5-63180-Bjärnum_D.csv;https://opendata-download-metobs.smhi.se/api/version/1.0/parameter/5/station/63180/period/corrected-archive/data.csv
53650;Björka;55.7;13.63;32;Nej;5-53650-Björka.csv;https://opendata-download-metobs.smhi.se/api/version/1.0/parameter/5/station/53650/period/corrected-archive/data.csv
155920;Björkbacken;65.75;15.55;515;Nej;5-155920-Björkbacken.csv;https://opendata-download-metobs.smhi.se/api/version/1.0/parameter/5/station/155920/period/corrected-archive/data.csv
142030;Björkede;64.04;12.94;451;Nej;5-142030-Björkede.csv;https://opendata-download-metobs.smhi.se/api/version/1.0/parameter/5/station/142030/period/corrected-archive/data.csv
163980;Björkfors;65.93;23.47;10;Nej;5-163980-Björkfors.csv;https://opendata-download-metobs.smhi.se/api/version/1.0/parameter/5/station/163980/period/corrected-archive/data.csv
163680;Björkfors;65.92;23.47;10;Nej;5-163680-Björkfors.csv;https://opendata-download-metobs.smhi.se/api/version/1.0/parameter/5/station/163680/period/corrected-archive/data.csv
188680;Björkliden;68.38;18.68;360;Nej;5-188680-Björkliden.csv;https://opendata-download-metobs.smhi.se/api/version/1.0/parameter/5/station/188680/period/corrected-archive/data.csv
107040;Björklinge D;60.04;17.56;29.693;Ja;5-107040-Björklinge_D.csv;https://opendata-download-metobs.smhi.se/api/version/1.0/parameter/5/station/107040/period/corrected-archive/data.csv
95270;Björklund;59.42;15.3;48;Nej;5-95270-Björklund.csv;https://opendata-download-metobs.smhi.se/api/version/1.0/parameter/5/station/95270/period/corrected-archive/data.csv
98580;Björksättra;59.93;18.48;20;Nej;5-98580-Björksättra.csv;https://opendata-download-metobs.smhi.se/api/version/1.0/parameter/5/station/98580/period/corrected-archive/data.csv
178820;Björkudden;67.4;18.72;376;Ja;5-178820-Björkudden.csv;https://opendata-download-metobs.smhi.se/api/version/1.0/parameter/5/station/178820/period/corrected-archive/data.csv
155850;Björkvik;65.5;15.56;435;Nej;5-155850-Björkvik.csv;https://opendata-download-metobs.smhi.se/api/version/1.0/parameter/5/station/155850/period/corrected-archive/data.csv
86500;Björkvik D;58.84;16.52;30.967;Ja;5-86500-Björkvik_D.csv;https://opendata-download-metobs.smhi.se/api/version/1.0/parameter/5/station/86500/period/corrected-archive/data.csv
82390;Björkåsen;58.65;12.63;60;Nej;5-82390-Björkåsen.csv;https://opendata-download-metobs.smhi.se/api/version/1.0/parameter/5/station/82390/period/corrected-archive/data.csv
107620;Björn;60.63;17.98;4;Nej;5-107620-Björn.csv;https://opendata-download-metobs.smhi.se/api/version/1.0/parameter/5/station/107620/period/corrected-archive/data.csv
83640;Björnegården;58.52;13.07;75;Nej;5-83640-Björnegården.csv;https://opendata-download-metobs.smhi.se/api/version/1.0/parameter/5/station/83640/period/corrected-archive/data.csv
122020;Björnliden;62.04;12.4;750;Nej;5-122020-Björnliden.csv;https://opendata-download-metobs.smhi.se/api/version/1.0/parameter/5/station/122020/period/corrected-archive/data.csv
53380;Björnstorp;55.63;13.41;45;Nej;5-53380-Björnstorp.csv;https://opendata-download-metobs.smhi.se/api/version/1.0/parameter/5/station/53380/period/corrected-archive/data.csv
126020;Björsarv;62.03;16.3;150;Nej;5-126020-Björsarv.csv;https://opendata-download-metobs.smhi.se/api/version/1.0/parameter/5/station/126020/period/corrected-archive/data.csv
156780;Blaiken D;65.25;16.86;399.629;Ja;5-156780-Blaiken_D.csv;https://opendata-download-metobs.smhi.se/api/version/1.0/parameter/5/station/156780/period/corrected-archive/data.csv
155710;Blaikliden;65.05;15.75;520;Nej;5-155710-Blaikliden.csv;https://opendata-download-metobs.smhi.se/api/version/1.0/parameter/5/station/155710/period/corrected-archive/data.csv
94350;Blankafors;59.53;14.72;160;Nej;5-94350-Blankafors.csv;https://opendata-download-metobs.smhi.se/api/version/1.0/parameter/5/station/94350/period/corrected-archive/data.csv
75140;Blankaström;57.22;15.92;80;Nej;5-75140-Blankaström.csv;https://opendata-download-metobs.smhi.se/api/version/1.0/parameter/5/station/75140/period/corrected-archive/data.csv
157800;Blattnicksele;65.34;17.46;370;Nej;5-157800-Blattnicksele.csv;https://opendata-download-metobs.smhi.se/api/version/1.0/parameter/5/station/157800/period/corrected-archive/data.csv
92170;Blomskog;59.29;12.05;110;Nej;5-92170-Blomskog.csv;https://opendata-download-metobs.smhi.se/api/version/1.0/parameter/5/station/92170/period/corrected-archive/data.csv
92130;Blomskog A;59.22;12.08;169.645;Ja;5-92130-Blomskog_A.csv;https://opendata-download-metobs.smhi.se/api/version/1.0/parameter/5/station/92130/period/corrected-archive/data.csv
92550;Blåbärskullen;59.83;12.88;350;Nej;5-92550-Blåbärskullen.csv;https://opendata-download-metobs.smhi.se/api/version/1.0/parameter/5/station/92550/period/corrected-archive/data.csv
62720;Boarp;56.33;12.93;90;Nej;5-62720-Boarp.csv;https://opendata-download-metobs.smhi.se/api/version/1.0/parameter/5/station/62720/period/corrected-archive/data.csv
78050;Bobbenarve;57.03;18.28;8;Nej;5-78050-Bobbenarve.csv;https://opendata-download-metobs.smhi.se/api/version/1.0/parameter/5/station/78050/period/corrected-archive/data.csv
117640;Boda;61.58;17;40;Nej;5-117640-Boda.csv;https://opendata-download-metobs.smhi.se/api/version/1.0/parameter/5/station/117640/period/corrected-archive/data.csv
161940;Boden Mo;65.81;21.64;25.2;Ja;5-161940-Boden_Mo.csv;https://opendata-download-metobs.smhi.se/api/version/1.0/parameter/5/station/161940/period/corrected-archive/data.csv
170630;Bodträskfors;66.08;20.93;30;Nej;5-170630-Bodträskfors.csv;https://opendata-download-metobs.smhi.se/api/version/1.0/parameter/5/station/170630/period/corrected-archive/data.csv
102040;Bogen;60.06;12.56;245;Nej;5-102040-Bogen.csv;https://opendata-download-metobs.smhi.se/api/version/1.0/parameter/5/station/102040/period/corrected-archive/data.csv
98240;Bogesund;59.41;18.23;22;Nej;5-98240-Bogesund.csv;https://opendata-download-metobs.smhi.se/api/version/1.0/parameter/5/station/98240/period/corrected-archive/data.csv
155900;Boksjö;65.68;15.82;475;Nej;5-155900-Boksjö.csv;https://opendata-download-metobs.smhi.se/api/version/1.0/parameter/5/station/155900/period/corrected-archive/data.csv
72400;Bollebygd;57.64;12.63;130.32;Ja;5-72400-Bollebygd.csv;https://opendata-download-metobs.smhi.se/api/version/1.0/parameter/5/station/72400/period/corrected-archive/data.csv
54300;Bollerup;55.49;14.04;57.568;Ja;5-54300-Bollerup.csv;https://opendata-download-metobs.smhi.se/api/version/1.0/parameter/5/station/54300/period/corrected-archive/data.csv
116730;Bollnäs;61.35;16.42;55;Nej;5-116730-Bollnäs.csv;https://opendata-download-metobs.smhi.se/api/version/1.0/parameter/5/station/116730/period/corrected-archive/data.csv
116250;Bollnäs D;61.42;16.37;113.776;Ja;5-116250-Bollnäs_D.csv;https://opendata-download-metobs.smhi.se/api/version/1.0/parameter/5/station/116250/period/corrected-archive/data.csv
137020;Bollstabruk;63;17.67;70;Nej;5-137020-Bollstabruk.csv;https://opendata-download-metobs.smhi.se/api/version/1.0/parameter/5/station/137020/period/corrected-archive/data.csv
63490;Bolmen;56.81;13.7;160;Nej;5-63490-Bolmen.csv;https://opendata-download-metobs.smhi.se/api/version/1.0/parameter/5/station/63490/period/corrected-archive/data.csv
73020;Bolmsö;57.02;13.73;160;Nej;5-73020-Bolmsö.csv;https://opendata-download-metobs.smhi.se/api/version/1.0/parameter/5/station/73020/period/corrected-archive/data.csv
135090;Bomsund;63.15;15.76;220;Nej;5-135090-Bomsund.csv;https://opendata-download-metobs.smhi.se/api/version/1.0/parameter/5/station/135090/period/corrected-archive/data.csv
73340;Bondstorp D;57.59;13.93;295;Nej;5-73340-Bondstorp_D.csv;https://opendata-download-metobs.smhi.se/api/version/1.0/parameter/5/station/73340/period/corrected-archive/data.csv
66530;Borgholm;56.88;16.67;5;Nej;5-66530-Borgholm.csv;https://opendata-download-metobs.smhi.se/api/version/1.0/parameter/5/station/66530/period/corrected-archive/data.csv
83170;Borgunda;58.29;13.8;181;Nej;5-83170-Borgunda.csv;https://opendata-download-metobs.smhi.se/api/version/1.0/parameter/5/station/83170/period/corrected-archive/data.csv
135260;Borgvattnet D;63.42;15.83;386.316;Ja;5-135260-Borgvattnet_D.csv;https://opendata-download-metobs.smhi.se/api/version/1.0/parameter/5/station/135260/period/corrected-archive/data.csv
92210;Borgviksbruk;59.35;12.96;55;Nej;5-92210-Borgviksbruk.csv;https://opendata-download-metobs.smhi.se/api/version/1.0/parameter/5/station/92210/period/corrected-archive/data.csv
105440;Borgärdet;60.73;15.91;140;Nej;5-105440-Borgärdet.csv;https://opendata-download-metobs.smhi.se/api/version/1.0/parameter/5/station/105440/period/corrected-archive/data.csv
105280;Borlänge Aut;60.49;15.43;140;Nej;5-105280-Borlänge_Aut.csv;https://opendata-download-metobs.smhi.se/api/version/1.0/parameter/5/station/105280/period/corrected-archive/data.csv
105310;Borlänge D;60.49;15.43;145;Ja;5-105310-Borlänge_D.csv;https://opendata-download-metobs.smhi.se/api/version/1.0/parameter/5/station/105310/period/corrected-archive/data.csv
105260;Borlänge Flygplats;60.43;15.51;152;Nej;5-105260-Borlänge_Flygplats.csv;https://opendata-download-metobs.smhi.se/api/version/1.0/parameter/5/station/105260/period/corrected-archive/data.csv
81090;Bornö;58.38;11.58;3;Nej;5-81090-Bornö.csv;https://opendata-download-metobs.smhi.se/api/version/1.0/parameter/5/station/81090/period/corrected-archive/data.csv
72450;Borås;57.76;12.95;135;Ja;5-72450-Borås.csv;https://opendata-download-metobs.smhi.se/api/version/1.0/parameter/5/station/72450/period/corrected-archive/data.csv
74710;Botorp;57.98;14.75;185;Nej;5-74710-Botorp.csv;https://opendata-download-metobs.smhi.se/api/version/1.0/parameter/5/station/74710/period/corrected-archive/data.csv
73350;Bottnaryd;57.74;13.9;244;Ja;5-73350-Bottnaryd.csv;https://opendata-download-metobs.smhi.se/api/version/1.0/parameter/5/station/73350/period/corrected-archive/data.csv
133410;Bottnen;63.68;13.37;400;Ja;5-133410-Bottnen.csv;https://opendata-download-metobs.smhi.se/api/version/1.0/parameter/5/station/133410/period/corrected-archive/data.csv
85120;Boxholm D;58.2;15.02;160;Nej;5-85120-Boxholm_D.csv;https://opendata-download-metobs.smhi.se/api/version/1.0/parameter/5/station/85120/period/corrected-archive/data.csv
53420;Brandstad;55.68;13.73;95;Nej;5-53420-Brandstad.csv;https://opendata-download-metobs.smhi.se/api/version/1.0/parameter/5/station/53420/period/corrected-archive/data.csv
113040;Branäs;61.07;13.48;480;Nej;5-113040-Branäs.csv;https://opendata-download-metobs.smhi.se/api/version/1.0/parameter/5/station/113040/period/corrected-archive/data.csv
138270;Bredbyn D;63.46;18.07;81.398;Ja;5-138270-Bredbyn_D.csv;https://opendata-download-metobs.smhi.se/api/version/1.0/parameter/5/station/138270/period/corrected-archive/data.csv
140560;Brednoret D;63.93;20.78;15;Nej;5-140560-Brednoret_D.csv;https://opendata-download-metobs.smhi.se/api/version/1.0/parameter/5/station/140560/period/corrected-archive/data.csv
76310;Bredshult;57.52;16.28;60;Nej;5-76310-Bredshult.csv;https://opendata-download-metobs.smhi.se/api/version/1.0/parameter/5/station/76310/period/corrected-archive/data.csv
138720;Bredträsk;63.88;18.6;325;Nej;5-138720-Bredträsk.csv;https://opendata-download-metobs.smhi.se/api/version/1.0/parameter/5/station/138720/period/corrected-archive/data.csv
91130;Bredviken;59.22;11.99;100;Nej;5-91130-Bredviken.csv;https://opendata-download-metobs.smhi.se/api/version/1.0/parameter/5/station/91130/period/corrected-archive/data.csv
164720;Bredviken;66.12;14.75;525;Nej;5-164720-Bredviken.csv;https://opendata-download-metobs.smhi.se/api/version/1.0/parameter/5/station/164720/period/corrected-archive/data.csv
65170;Bredåkra D;56.25;15.25;40;Nej;5-65170-Bredåkra_D.csv;https://opendata-download-metobs.smhi.se/api/version/1.0/parameter/5/station/65170/period/corrected-archive/data.csv
98280;Brevik;59.35;18.2;17;Nej;5-98280-Brevik.csv;https://opendata-download-metobs.smhi.se/api/version/1.0/parameter/5/station/98280/period/corrected-archive/data.csv
107600;Bro;60.4;17.58;25;Nej;5-107600-Bro.csv;https://opendata-download-metobs.smhi.se/api/version/1.0/parameter/5/station/107600/period/corrected-archive/data.csv
86620;Broby Skolhem;58.47;16.3;15;Nej;5-86620-Broby_Skolhem.csv;https://opendata-download-metobs.smhi.se/api/version/1.0/parameter/5/station/86620/period/corrected-archive/data.csv
96640;Broddbo;59.98;16.46;31;Nej;5-96640-Broddbo.csv;https://opendata-download-metobs.smhi.se/api/version/1.0/parameter/5/station/96640/period/corrected-archive/data.csv
64070;Bromölla;56.06;14.48;5.574;Ja;5-64070-Bromölla.csv;https://opendata-download-metobs.smhi.se/api/version/1.0/parameter/5/station/64070/period/corrected-archive/data.csv
106040;Brovallen;60.1;16.3;100.154;Ja;5-106040-Brovallen.csv;https://opendata-download-metobs.smhi.se/api/version/1.0/parameter/5/station/106040/period/corrected-archive/data.csv
122390;Bruksvallarna;62.64;12.42;700;Nej;5-122390-Bruksvallarna.csv;https://opendata-download-metobs.smhi.se/api/version/1.0/parameter/5/station/122390/period/corrected-archive/data.csv
63420;Brunnshult;56.71;13.16;165;Nej;5-63420-Brunnshult.csv;https://opendata-download-metobs.smhi.se/api/version/1.0/parameter/5/station/63420/period/corrected-archive/data.csv
92370;Brunsberg;59.62;12.98;70;Nej;5-92370-Brunsberg.csv;https://opendata-download-metobs.smhi.se/api/version/1.0/parameter/5/station/92370/period/corrected-archive/data.csv
84010;Brunström;58;14.48;207;Nej;5-84010-Brunström.csv;https://opendata-download-metobs.smhi.se/api/version/1.0/parameter/5/station/84010/period/corrected-archive/data.csv
127130;Brämön A;62.22;17.74;18.13;Ja;5-127130-Brämön_A.csv;https://opendata-download-metobs.smhi.se/api/version/1.0/parameter/5/station/127130/period/corrected-archive/data.csv
150200;Brände;64.33;20.96;60;Ja;5-150200-Brände.csv;https://opendata-download-metobs.smhi.se/api/version/1.0/parameter/5/station/150200/period/corrected-archive/data.csv
133400;Bränna;63.67;13.55;430;Nej;5-133400-Bränna.csv;https://opendata-download-metobs.smhi.se/api/version/1.0/parameter/5/station/133400/period/corrected-archive/data.csv
161930;Brännberg D;65.79;21.26;92.722;Ja;5-161930-Brännberg_D.csv;https://opendata-download-metobs.smhi.se/api/version/1.0/parameter/5/station/161930/period/corrected-archive/data.csv
149390;Brännforssund;64.65;19.37;225;Ja;5-149390-Brännforssund.csv;https://opendata-download-metobs.smhi.se/api/version/1.0/parameter/5/station/149390/period/corrected-archive/data.csv
82640;Brålanda;58.57;12.37;65;Nej;5-82640-Brålanda.csv;https://opendata-download-metobs.smhi.se/api/version/1.0/parameter/5/station/82640/period/corrected-archive/data.csv
54410;Brösarp D;55.72;14.1;49.568;Ja;5-54410-Brösarp_D.csv;https://opendata-download-metobs.smhi.se/api/version/1.0/parameter/5/station/54410/period/corrected-archive/data.csv
105610;Bullerforsen;60.5;15.43;125;Nej;5-105610-Bullerforsen.csv;https://opendata-download-metobs.smhi.se/api/version/1.0/parameter/5/station/105610/period/corrected-archive/data.csv
157870;Buresjön A;65.56;17.86;394.05;Ja;5-157870-Buresjön_A.csv;https://opendata-download-metobs.smhi.se/api/version/1.0/parameter/5/station/157870/period/corrected-archive/data.csv
78130;Burs D;57.23;18.56;24.5;Nej;5-78130-Burs_D.csv;https://opendata-download-metobs.smhi.se/api/version/1.0/parameter/5/station/78130/period/corrected-archive/data.csv
78240;Buttle;57.4;18.53;45;Nej;5-78240-Buttle.csv;https://opendata-download-metobs.smhi.se/api/version/1.0/parameter/5/station/78240/period/corrected-archive/data.csv
150040;Bygdeå;64.06;20.88;18;Nej;5-150040-Bygdeå.csv;https://opendata-download-metobs.smhi.se/api/version/1.0/parameter/5/station/150040/period/corrected-archive/data.csv
150210;Bygdsiljum D;64.37;20.48;150;Ja;5-150210-Bygdsiljum_D.csv;https://opendata-download-metobs.smhi.se/api/version/1.0/parameter/5/station/150210/period/corrected-archive/data.csv
151570;Byske;64.95;21.22;15;Nej;5-151570-Byske.csv;https://opendata-download-metobs.smhi.se/api/version/1.0/parameter/5/station/151570/period/corrected-archive/data.csv
161700;Byske-Vitsjön D;65.01;21.25;30;Nej;5-161700-Byske-Vitsjön_D.csv;https://opendata-download-metobs.smhi.se/api/version/1.0/parameter/5/station/161700/period/corrected-archive/data.csv
64050;Bäckaskog;56.05;14.34;12;Nej;5-64050-Bäckaskog.csv;https://opendata-download-metobs.smhi.se/api/version/1.0/parameter/5/station/64050/period/corrected-archive/data.csv
94610;Bäckatorp;59.13;14.65;95;Nej;5-94610-Bäckatorp.csv;https://opendata-download-metobs.smhi.se/api/version/1.0/parameter/5/station/94610/period/corrected-archive/data.csv
82490;Bäckefors;58.8;12.16;149.614;Ja;5-82490-Bäckefors.csv;https://opendata-download-metobs.smhi.se/api/version/1.0/parameter/5/station/82490/period/corrected-archive/data.csv
84620;Bällefors;58.58;14.12;90;Nej;5-84620-Bällefors.csv;https://opendata-download-metobs.smhi.se/api/version/1.0/parameter/5/station/84620/period/corrected-archive/data.csv
148370;Bäverträsk;64.62;18.33;351.276;Ja;5-148370-Bäverträsk.csv;https://opendata-download-metobs.smhi.se/api/version/1.0/parameter/5/station/148370/period/corrected-archive/data.csv
62600;Båstad;56.45;12.8;9;Nej;5-62600-Båstad.csv;https://opendata-download-metobs.smhi.se/api/version/1.0/parameter/5/station/62600/period/corrected-archive/data.csv
86170;Båtvik;58.27;16.08;80;Nej;5-86170-Båtvik.csv;https://opendata-download-metobs.smhi.se/api/version/1.0/parameter/5/station/86170/period/corrected-archive/data.csv
65280;Böket;56.43;15.02;121;Nej;5-65280-Böket.csv;https://opendata-download-metobs.smhi.se/api/version/1.0/parameter/5/station/65280/period/corrected-archive/data.csv
75610;Böksholm;57.08;15;190;Nej;5-75610-Böksholm.csv;https://opendata-download-metobs.smhi.se/api/version/1.0/parameter/5/station/75610/period/corrected-archive/data.csv
136610;Bölestrand;63.13;16.15;220;Nej;5-136610-Bölestrand.csv;https://opendata-download-metobs.smhi.se/api/version/1.0/parameter/5/station/136610/period/corrected-archive/data.csv
53310;Börringe Kloster;55.51;13.33;55;Nej;5-53310-Börringe_Kloster.csv;https://opendata-download-metobs.smhi.se/api/version/1.0/parameter/5/station/53310/period/corrected-archive/data.csv
86220;Börrum D;58.35;16.62;16.196;Ja;5-86220-Börrum_D.csv;https://opendata-download-metobs.smhi.se/api/version/1.0/parameter/5/station/86220/period/corrected-archive/data.csv
123450;Börtnan;62.73;13.91;455;Nej;5-123450-Börtnan.csv;https://opendata-download-metobs.smhi.se/api/version/1.0/parameter/5/station/123450/period/corrected-archive/data.csv
123460;Börtnan A;62.75;13.84;467.246;Ja;5-123460-Börtnan_A.csv;https://opendata-download-metobs.smhi.se/api/version/1.0/parameter/5/station/123460/period/corrected-archive/data.csv
92530;Charlottenberg;59.89;12.3;139.348;Ja;5-92530-Charlottenberg.csv;https://opendata-download-metobs.smhi.se/api/version/1.0/parameter/5/station/92530/period/corrected-archive/data.csv
94390;Daglösen A;59.66;14.18;133.077;Ja;5-94390-Daglösen_A.csv;https://opendata-download-metobs.smhi.se/api/version/1.0/parameter/5/station/94390/period/corrected-archive/data.csv
156740;Dajkanvik;65.14;16.3;430;Nej;5-156740-Dajkanvik.csv;https://opendata-download-metobs.smhi.se/api/version/1.0/parameter/5/station/156740/period/corrected-archive/data.csv
134420;Dal;63.7;14.13;480;Nej;5-134420-Dal.csv;https://opendata-download-metobs.smhi.se/api/version/1.0/parameter/5/station/134420/period/corrected-archive/data.csv
104320;Dala-Järna D;60.56;14.36;236.63;Ja;5-104320-Dala-Järna_D.csv;https://opendata-download-metobs.smhi.se/api/version/1.0/parameter/5/station/104320/period/corrected-archive/data.csv
98090;Dalarö D;59.13;18.41;16.304;Ja;5-98090-Dalarö_D.csv;https://opendata-download-metobs.smhi.se/api/version/1.0/parameter/5/station/98090/period/corrected-archive/data.csv
133620;Dalen;63.32;13.07;480;Nej;5-133620-Dalen.csv;https://opendata-download-metobs.smhi.se/api/version/1.0/parameter/5/station/133620/period/corrected-archive/data.csv
115630;Dalfors;61.21;15.41;236;Nej;5-115630-Dalfors.csv;https://opendata-download-metobs.smhi.se/api/version/1.0/parameter/5/station/115630/period/corrected-archive/data.csv
94570;Dalkarlsjöhyttan;59.95;14.13;340;Nej;5-94570-Dalkarlsjöhyttan.csv;https://opendata-download-metobs.smhi.se/api/version/1.0/parameter/5/station/94570/period/corrected-archive/data.csv
160600;Dalliden;65.02;20.31;330;Nej;5-160600-Dalliden.csv;https://opendata-download-metobs.smhi.se/api/version/1.0/parameter/5/station/160600/period/corrected-archive/data.csv
73430;Dalsjöfors;57.72;13.12;257;Nej;5-73430-Dalsjöfors.csv;https://opendata-download-metobs.smhi.se/api/version/1.0/parameter/5/station/73430/period/corrected-archive/data.csv
73400;Dalstorp;57.6;13.51;194;Ja;5-73400-Dalstorp.csv;https://opendata-download-metobs.smhi.se/api/version/1.0/parameter/5/station/73400/period/corrected-archive/data.csv
115040;Dalstuga;61.07;15.7;240;Nej;5-115040-Dalstuga.csv;https://opendata-download-metobs.smhi.se/api/version/1.0/parameter/5/station/115040/period/corrected-archive/data.csv
156850;Danasjö;65.54;16.54;652;Nej;5-156850-Danasjö.csv;https://opendata-download-metobs.smhi.se/api/version/1.0/parameter/5/station/156850/period/corrected-archive/data.csv
85080;Danielshammar;58.13;15.25;170;Nej;5-85080-Danielshammar.csv;https://opendata-download-metobs.smhi.se/api/version/1.0/parameter/5/station/85080/period/corrected-archive/data.csv
107120;Dannemora;60.2;17.9;41;Nej;5-107120-Dannemora.csv;https://opendata-download-metobs.smhi.se/api/version/1.0/parameter/5/station/107120/period/corrected-archive/data.csv
85060;Danskebo;58.11;15.25;175;Nej;5-85060-Danskebo.csv;https://opendata-download-metobs.smhi.se/api/version/1.0/parameter/5/station/85060/period/corrected-archive/data.csv
54480;Degeberga D;55.8;14.17;17;Ja;5-54480-Degeberga_D.csv;https://opendata-download-metobs.smhi.se/api/version/1.0/parameter/5/station/54480/period/corrected-archive/data.csv
94140;Degerfors D;59.19;14.39;101.855;Ja;5-94140-Degerfors_D.csv;https://opendata-download-metobs.smhi.se/api/version/1.0/parameter/5/station/94140/period/corrected-archive/data.csv
94160;Degernäs;59.25;14.47;100;Nej;5-94160-Degernäs.csv;https://opendata-download-metobs.smhi.se/api/version/1.0/parameter/5/station/94160/period/corrected-archive/data.csv
138110;Degersjö;63.19;18.03;295;Nej;5-138110-Degersjö.csv;https://opendata-download-metobs.smhi.se/api/version/1.0/parameter/5/station/138110/period/corrected-archive/data.csv
93370;Dejefors;59.61;13.48;65;Nej;5-93370-Dejefors.csv;https://opendata-download-metobs.smhi.se/api/version/1.0/parameter/5/station/93370/period/corrected-archive/data.csv
116480;Delsbo;61.8;16.57;51;Ja;5-116480-Delsbo.csv;https://opendata-download-metobs.smhi.se/api/version/1.0/parameter/5/station/116480/period/corrected-archive/data.csv
116490;Delsbo A;61.83;16.54;70.667;Ja;5-116490-Delsbo_A.csv;https://opendata-download-metobs.smhi.se/api/version/1.0/parameter/5/station/116490/period/corrected-archive/data.csv
132370;Digernäset D;63.62;12.92;414.851;Ja;5-132370-Digernäset_D.csv;https://opendata-download-metobs.smhi.se/api/version/1.0/parameter/5/station/132370/period/corrected-archive/data.csv
156770;Dikanäs;65.23;16;484;Nej;5-156770-Dikanäs.csv;https://opendata-download-metobs.smhi.se/api/version/1.0/parameter/5/station/156770/period/corrected-archive/data.csv
156790;Dikanäs Skansnäs;65.32;16.04;525;Nej;5-156790-Dikanäs_Skansnäs.csv;https://opendata-download-metobs.smhi.se/api/version/1.0/parameter/5/station/156790/period/corrected-archive/data.csv
81320;Dingle;58.53;11.57;20;Nej;5-81320-Dingle.csv;https://opendata-download-metobs.smhi.se/api/version/1.0/parameter/5/station/81320/period/corrected-archive/data.csv
75080;Djupadal;57.15;15.58;200;Nej;5-75080-Djupadal.csv;https://opendata-download-metobs.smhi.se/api/version/1.0/parameter/5/station/75080/period/corrected-archive/data.csv
91370;Djurskog;59.61;11.93;280;Nej;5-91370-Djurskog.csv;https://opendata-download-metobs.smhi.se/api/version/1.0/parameter/5/station/91370/period/corrected-archive/data.csv
84200;Djursätra;58.33;14.06;125;Ja;5-84200-Djursätra.csv;https://opendata-download-metobs.smhi.se/api/version/1.0/parameter/5/station/84200/period/corrected-archive/data.csv
105330;Djurås D;60.56;15.12;165;Nej;5-105330-Djurås_D.csv;https://opendata-download-metobs.smhi.se/api/version/1.0/parameter/5/station/105330/period/corrected-archive/data.csv
98190;Djurö D;59.31;18.69;4.575;Ja;5-98190-Djurö_D.csv;https://opendata-download-metobs.smhi.se/api/version/1.0/parameter/5/station/98190/period/corrected-archive/data.csv
105640;Domnarvet;60.5;15.45;128;Nej;5-105640-Domnarvet.csv;https://opendata-download-metobs.smhi.se/api/version/1.0/parameter/5/station/105640/period/corrected-archive/data.csv
75120;Drageryd;57.2;15.97;77;Nej;5-75120-Drageryd.csv;https://opendata-download-metobs.smhi.se/api/version/1.0/parameter/5/station/75120/period/corrected-archive/data.csv
123060;Dravagen A;62.09;13.61;566.642;Ja;5-123060-Dravagen_A.csv;https://opendata-download-metobs.smhi.se/api/version/1.0/parameter/5/station/123060/period/corrected-archive/data.csv
84680;Drottningtorp;58.1;14.83;250;Nej;5-84680-Drottningtorp.csv;https://opendata-download-metobs.smhi.se/api/version/1.0/parameter/5/station/84680/period/corrected-archive/data.csv
97590;Drälinge;59.99;17.57;30;Nej;5-97590-Drälinge.csv;https://opendata-download-metobs.smhi.se/api/version/1.0/parameter/5/station/97590/period/corrected-archive/data.csv
73010;Dungen;57.02;13.73;150;Nej;5-73010-Dungen.csv;https://opendata-download-metobs.smhi.se/api/version/1.0/parameter/5/station/73010/period/corrected-archive/data.csv
96120;Dunker;59.15;16.85;35;Nej;5-96120-Dunker.csv;https://opendata-download-metobs.smhi.se/api/version/1.0/parameter/5/station/96120/period/corrected-archive/data.csv
132240;Duved;63.39;12.94;400;Nej;5-132240-Duved.csv;https://opendata-download-metobs.smhi.se/api/version/1.0/parameter/5/station/132240/period/corrected-archive/data.csv
105570;Dådran;60.94;15.55;215;Nej;5-105570-Dådran.csv;https://opendata-download-metobs.smhi.se/api/version/1.0/parameter/5/station/105570/period/corrected-archive/data.csv
124480;Dödre;62.79;14.68;348.778;Ja;5-124480-Dödre.csv;https://opendata-download-metobs.smhi.se/api/version/1.0/parameter/5/station/124480/period/corrected-archive/data.csv
116240;Dönje;61.4;16.41;85;Nej;5-116240-Dönje.csv;https://opendata-download-metobs.smhi.se/api/version/1.0/parameter/5/station/116240/period/corrected-archive/data.csv
74610;Ed;57.08;14.16;155;Nej;5-74610-Ed.csv;https://opendata-download-metobs.smhi.se/api/version/1.0/parameter/5/station/74610/period/corrected-archive/data.csv
81550;Ed D;58.91;11.77;163.82;Ja;5-81550-Ed_D.csv;https://opendata-download-metobs.smhi.se/api/version/1.0/parameter/5/station/81550/period/corrected-archive/data.csv
126280;Ede;62.43;16.49;80;Nej;5-126280-Ede.csv;https://opendata-download-metobs.smhi.se/api/version/1.0/parameter/5/station/126280/period/corrected-archive/data.csv
97600;Edeby;59.45;17;10;Nej;5-97600-Edeby.csv;https://opendata-download-metobs.smhi.se/api/version/1.0/parameter/5/station/97600/period/corrected-archive/data.csv
103050;Edebäck;60.07;13.55;155;Nej;5-103050-Edebäck.csv;https://opendata-download-metobs.smhi.se/api/version/1.0/parameter/5/station/103050/period/corrected-archive/data.csv
88560;Edesnäs;58.96;18.29;10;Nej;5-88560-Edesnäs.csv;https://opendata-download-metobs.smhi.se/api/version/1.0/parameter/5/station/88560/period/corrected-archive/data.csv
132590;Edevik;63.98;12.87;425;Ja;5-132590-Edevik.csv;https://opendata-download-metobs.smhi.se/api/version/1.0/parameter/5/station/132590/period/corrected-archive/data.csv
115230;Edsbyn;61.38;15.84;161;Nej;5-115230-Edsbyn.csv;https://opendata-download-metobs.smhi.se/api/version/1.0/parameter/5/station/115230/period/corrected-archive/data.csv
115220;Edsbyn A;61.36;15.71;183.648;Ja;5-115220-Edsbyn_A.csv;https://opendata-download-metobs.smhi.se/api/version/1.0/parameter/5/station/115220/period/corrected-archive/data.csv
136240;Edsele;63.4;16.55;165;Nej;5-136240-Edsele.csv;https://opendata-download-metobs.smhi.se/api/version/1.0/parameter/5/station/136240/period/corrected-archive/data.csv
62510;Eftra D;56.86;12.65;45.525;Ja;5-62510-Eftra_D.csv;https://opendata-download-metobs.smhi.se/api/version/1.0/parameter/5/station/62510/period/corrected-archive/data.csv
63720;Egernahult;56.62;13.38;150;Nej;5-63720-Egernahult.csv;https://opendata-download-metobs.smhi.se/api/version/1.0/parameter/5/station/63720/period/corrected-archive/data.csv
107440;Eggegrund;60.73;17.57;5;Nej;5-107440-Eggegrund.csv;https://opendata-download-metobs.smhi.se/api/version/1.0/parameter/5/station/107440/period/corrected-archive/data.csv
83330;Ekby;58.63;13.87;70;Nej;5-83330-Ekby.csv;https://opendata-download-metobs.smhi.se/api/version/1.0/parameter/5/station/83330/period/corrected-archive/data.csv
53710;Ekebo;55.95;13.13;80;Nej;5-53710-Ekebo.csv;https://opendata-download-metobs.smhi.se/api/version/1.0/parameter/5/station/53710/period/corrected-archive/data.csv
85720;Ekeby;58.93;15.93;57;Nej;5-85720-Ekeby.csv;https://opendata-download-metobs.smhi.se/api/version/1.0/parameter/5/station/85720/period/corrected-archive/data.csv
64330;Ekefors;56.55;14.76;145;Nej;5-64330-Ekefors.csv;https://opendata-download-metobs.smhi.se/api/version/1.0/parameter/5/station/64330/period/corrected-archive/data.csv
66470;Ekerum;56.78;16.58;40;Nej;5-66470-Ekerum.csv;https://opendata-download-metobs.smhi.se/api/version/1.0/parameter/5/station/66470/period/corrected-archive/data.csv
97360;Ekerö kyrka;59.28;17.75;15;Nej;5-97360-Ekerö_kyrka.csv;https://opendata-download-metobs.smhi.se/api/version/1.0/parameter/5/station/97360/period/corrected-archive/data.csv
84080;Eket;58.11;14.08;275;Nej;5-84080-Eket.csv;https://opendata-download-metobs.smhi.se/api/version/1.0/parameter/5/station/84080/period/corrected-archive/data.csv
96140;Eklången;59.24;16.74;35;Nej;5-96140-Eklången.csv;https://opendata-download-metobs.smhi.se/api/version/1.0/parameter/5/station/96140/period/corrected-archive/data.csv
149300;Ekorrträsk;64.5;19.05;220;Nej;5-149300-Ekorrträsk.csv;https://opendata-download-metobs.smhi.se/api/version/1.0/parameter/5/station/149300/period/corrected-archive/data.csv
74400;Eksjö;57.67;14.98;211;Nej;5-74400-Eksjö.csv;https://opendata-download-metobs.smhi.se/api/version/1.0/parameter/5/station/74400/period/corrected-archive/data.csv
98630;Ekskogen;59.63;18.23;4;Nej;5-98630-Ekskogen.csv;https://opendata-download-metobs.smhi.se/api/version/1.0/parameter/5/station/98630/period/corrected-archive/data.csv
65360;Emmaboda D;56.6;15.53;130;Ja;5-65360-Emmaboda_D.csv;https://opendata-download-metobs.smhi.se/api/version/1.0/parameter/5/station/65360/period/corrected-archive/data.csv
97380;Enköping;59.64;17.07;14.314;Ja;5-97380-Enköping.csv;https://opendata-download-metobs.smhi.se/api/version/1.0/parameter/5/station/97380/period/corrected-archive/data.csv
97370;Enköping Mo;59.65;17.12;24.6;Ja;5-97370-Enköping_Mo.csv;https://opendata-download-metobs.smhi.se/api/version/1.0/parameter/5/station/97370/period/corrected-archive/data.csv
82380;Erikstad;58.6;12.44;65;Nej;5-82380-Erikstad.csv;https://opendata-download-metobs.smhi.se/api/version/1.0/parameter/5/station/82380/period/corrected-archive/data.csv
85230;Erikstad Ö;58.38;15.82;70;Nej;5-85230-Erikstad_Ö.csv;https://opendata-download-metobs.smhi.se/api/version/1.0/parameter/5/station/85230/period/corrected-archive/data.csv
65260;Eringsboda D;56.45;15.35;120.199;Ja;5-65260-Eringsboda_D.csv;https://opendata-download-metobs.smhi.se/api/version/1.0/parameter/5/station/65260/period/corrected-archive/data.csv
98480;Erken;59.83;18.63;15;Nej;5-98480-Erken.csv;https://opendata-download-metobs.smhi.se/api/version/1.0/parameter/5/station/98480/period/corrected-archive/data.csv
96230;Eskilstuna;59.39;16.46;8.928;Ja;5-96230-Eskilstuna.csv;https://opendata-download-metobs.smhi.se/api/version/1.0/parameter/5/station/96230/period/corrected-archive/data.csv
96190;Eskilstuna A;59.38;16.45;12.577;Ja;5-96190-Eskilstuna_A.csv;https://opendata-download-metobs.smhi.se/api/version/1.0/parameter/5/station/96190/period/corrected-archive/data.csv
181970;Esrange;67.89;21.08;320.617;Ja;5-181970-Esrange.csv;https://opendata-download-metobs.smhi.se/api/version/1.0/parameter/5/station/181970/period/corrected-archive/data.csv
113080;Evertsberg;61.13;13.97;430;Nej;5-113080-Evertsberg.csv;https://opendata-download-metobs.smhi.se/api/version/1.0/parameter/5/station/113080/period/corrected-archive/data.csv
63470;Exens flygplats;56.68;13.78;127;Nej;5-63470-Exens_flygplats.csv;https://opendata-download-metobs.smhi.se/api/version/1.0/parameter/5/station/63470/period/corrected-archive/data.csv
98640;Experimentalfältet;59.37;18.06;14;Nej;5-98640-Experimentalfältet.csv;https://opendata-download-metobs.smhi.se/api/version/1.0/parameter/5/station/98640/period/corrected-archive/data.csv
72120;Fagered;57.2;12.81;100;Nej;5-72120-Fagered.csv;https://opendata-download-metobs.smhi.se/api/version/1.0/parameter/5/station/72120/period/corrected-archive/data.csv
160800;Fagerheden;65.34;20.9;220;Nej;5-160800-Fagerheden.csv;https://opendata-download-metobs.smhi.se/api/version/1.0/parameter/5/station/160800/period/corrected-archive/data.csv
75090;Fagerhult D;57.08;15.68;175.458;Ja;5-75090-Fagerhult_D.csv;https://opendata-download-metobs.smhi.se/api/version/1.0/parameter/5/station/75090/period/corrected-archive/data.csv
105000;Fagersta;60;15.8;100;Nej;5-105000-Fagersta.csv;https://opendata-download-metobs.smhi.se/api/version/1.0/parameter/5/station/105000/period/corrected-archive/data.csv
107330;Fagerviken;60.54;17.75;5;Nej;5-107330-Fagerviken.csv;https://opendata-download-metobs.smhi.se/api/version/1.0/parameter/5/station/107330/period/corrected-archive/data.csv
102520;Fageråsdammen;60.86;12.89;410;Nej;5-102520-Fageråsdammen.csv;https://opendata-download-metobs.smhi.se/api/version/1.0/parameter/5/station/102520/period/corrected-archive/data.csv
86090;Falerum;58.14;16.21;80;Nej;5-86090-Falerum.csv;https://opendata-download-metobs.smhi.se/api/version/1.0/parameter/5/station/86090/period/corrected-archive/data.csv
62520;Falkenberg;56.9;12.48;5;Nej;5-62520-Falkenberg.csv;https://opendata-download-metobs.smhi.se/api/version/1.0/parameter/5/station/62520/period/corrected-archive/data.csv
83090;Falköping-Valtorp D;58.24;13.63;166;Ja;5-83090-Falköping-Valtorp_D.csv;https://opendata-download-metobs.smhi.se/api/version/1.0/parameter/5/station/83090/period/corrected-archive/data.csv
85090;Fallvik D;58.13;15.86;140;Nej;5-85090-Fallvik_D.csv;https://opendata-download-metobs.smhi.se/api/version/1.0/parameter/5/station/85090/period/corrected-archive/data.csv
52230;Falsterbo;55.38;12.82;1.541;Ja;5-52230-Falsterbo.csv;https://opendata-download-metobs.smhi.se/api/version/1.0/parameter/5/station/52230/period/corrected-archive/data.csv
52240;Falsterbo A;55.38;12.82;1.575;Ja;5-52240-Falsterbo_A.csv;https://opendata-download-metobs.smhi.se/api/version/1.0/parameter/5/station/52240/period/corrected-archive/data.csv
76610;Falsterbo Skola;57.65;16.37;45;Nej;5-76610-Falsterbo_Skola.csv;https://opendata-download-metobs.smhi.se/api/version/1.0/parameter/5/station/76610/period/corrected-archive/data.csv
105370;Falun-Lugnet;60.62;15.66;161.395;Ja;5-105370-Falun-Lugnet.csv;https://opendata-download-metobs.smhi.se/api/version/1.0/parameter/5/station/105370/period/corrected-archive/data.csv
136050;Fanbergstorp;63.08;16.71;290;Nej;5-136050-Fanbergstorp.csv;https://opendata-download-metobs.smhi.se/api/version/1.0/parameter/5/station/136050/period/corrected-archive/data.csv
98620;Farsta;59.32;18.37;6;Nej;5-98620-Farsta.csv;https://opendata-download-metobs.smhi.se/api/version/1.0/parameter/5/station/98620/period/corrected-archive/data.csv
155740;Fatmomakke;65.09;15.13;580;Nej;5-155740-Fatmomakke.csv;https://opendata-download-metobs.smhi.se/api/version/1.0/parameter/5/station/155740/period/corrected-archive/data.csv
95320;Fellingsbro-Finnåker;59.53;15.59;51;Nej;5-95320-Fellingsbro-Finnåker.csv;https://opendata-download-metobs.smhi.se/api/version/1.0/parameter/5/station/95320/period/corrected-archive/data.csv
63540;Femsjö;56.89;13.38;177;Nej;5-63540-Femsjö.csv;https://opendata-download-metobs.smhi.se/api/version/1.0/parameter/5/station/63540/period/corrected-archive/data.csv
94430;Filipstad;59.72;14.17;141;Nej;5-94430-Filipstad.csv;https://opendata-download-metobs.smhi.se/api/version/1.0/parameter/5/station/94430/period/corrected-archive/data.csv
107140;Film A;60.24;17.9;33.381;Ja;5-107140-Film_A.csv;https://opendata-download-metobs.smhi.se/api/version/1.0/parameter/5/station/107140/period/corrected-archive/data.csv
107130;Films Kyrkby D;60.24;17.91;39;Nej;5-107130-Films_Kyrkby_D.csv;https://opendata-download-metobs.smhi.se/api/version/1.0/parameter/5/station/107130/period/corrected-archive/data.csv
115030;Finnbacka D;61.06;15.58;431;Ja;5-115030-Finnbacka_D.csv;https://opendata-download-metobs.smhi.se/api/version/1.0/parameter/5/station/115030/period/corrected-archive/data.csv
125020;Finneby;62.04;15.47;259;Nej;5-125020-Finneby.csv;https://opendata-download-metobs.smhi.se/api/version/1.0/parameter/5/station/125020/period/corrected-archive/data.csv
118610;Finngrundets Fyrskepp;61.07;18.68;5;Nej;5-118610-Finngrundets_Fyrskepp.csv;https://opendata-download-metobs.smhi.se/api/version/1.0/parameter/5/station/118610/period/corrected-archive/data.csv
85430;Finspång;58.7;15.78;45.652;Ja;5-85430-Finspång.csv;https://opendata-download-metobs.smhi.se/api/version/1.0/parameter/5/station/85430/period/corrected-archive/data.csv
85410;Finspång;58.71;15.82;41;Nej;5-85410-Finspång.csv;https://opendata-download-metobs.smhi.se/api/version/1.0/parameter/5/station/85410/period/corrected-archive/data.csv
115610;Finsthögst;61.32;15.5;300;Nej;5-115610-Finsthögst.csv;https://opendata-download-metobs.smhi.se/api/version/1.0/parameter/5/station/115610/period/corrected-archive/data.csv
144260;Fiskåvattnet;64.44;14.72;375;Nej;5-144260-Fiskåvattnet.csv;https://opendata-download-metobs.smhi.se/api/version/1.0/parameter/5/station/144260/period/corrected-archive/data.csv
94110;Fjugesta D;59.18;14.86;75;Nej;5-94110-Fjugesta_D.csv;https://opendata-download-metobs.smhi.se/api/version/1.0/parameter/5/station/94110/period/corrected-archive/data.csv
135600;Fjälkvarn;63.27;15.05;250;Nej;5-135600-Fjälkvarn.csv;https://opendata-download-metobs.smhi.se/api/version/1.0/parameter/5/station/135600/period/corrected-archive/data.csv
73550;Fjälla;57.92;13.08;260;Nej;5-73550-Fjälla.csv;https://opendata-download-metobs.smhi.se/api/version/1.0/parameter/5/station/73550/period/corrected-archive/data.csv
122360;Fjällnäs;62.58;12.22;780;Nej;5-122360-Fjällnäs.csv;https://opendata-download-metobs.smhi.se/api/version/1.0/parameter/5/station/122360/period/corrected-archive/data.csv
156880;Fjällsjönäs;65.62;16.62;414.943;Ja;5-156880-Fjällsjönäs.csv;https://opendata-download-metobs.smhi.se/api/version/1.0/parameter/5/station/156880/period/corrected-archive/data.csv
146250;Fjälltuna D;64.42;16.42;485;Nej;5-146250-Fjälltuna_D.csv;https://opendata-download-metobs.smhi.se/api/version/1.0/parameter/5/station/146250/period/corrected-archive/data.csv
96460;Fjärdhundra D;59.77;16.92;30;Nej;5-96460-Fjärdhundra_D.csv;https://opendata-download-metobs.smhi.se/api/version/1.0/parameter/5/station/96460/period/corrected-archive/data.csv
74420;Flahult;57.69;14.15;224;Nej;5-74420-Flahult.csv;https://opendata-download-metobs.smhi.se/api/version/1.0/parameter/5/station/74420/period/corrected-archive/data.csv
148150;Flakaträsk;64.25;18.52;400;Nej;5-148150-Flakaträsk.csv;https://opendata-download-metobs.smhi.se/api/version/1.0/parameter/5/station/148150/period/corrected-archive/data.csv
104390;Flaten;60.65;14.43;296;Nej;5-104390-Flaten.csv;https://opendata-download-metobs.smhi.se/api/version/1.0/parameter/5/station/104390/period/corrected-archive/data.csv
104360;Flatån;60.6;14.43;245;Nej;5-104360-Flatån.csv;https://opendata-download-metobs.smhi.se/api/version/1.0/parameter/5/station/104360/period/corrected-archive/data.csv
96020;Flen;59.05;16.6;30;Nej;5-96020-Flen.csv;https://opendata-download-metobs.smhi.se/api/version/1.0/parameter/5/station/96020/period/corrected-archive/data.csv
104160;Flen;60.32;14.77;400;Nej;5-104160-Flen.csv;https://opendata-download-metobs.smhi.se/api/version/1.0/parameter/5/station/104160/period/corrected-archive/data.csv
96040;Floda A;59.06;16.39;31.337;Ja;5-96040-Floda_A.csv;https://opendata-download-metobs.smhi.se/api/version/1.0/parameter/5/station/96040/period/corrected-archive/data.csv
63190;Flåss myr;56.38;13.48;125;Nej;5-63190-Flåss_myr.csv;https://opendata-download-metobs.smhi.se/api/version/1.0/parameter/5/station/63190/period/corrected-archive/data.csv
112510;Flötningen;61.84;12.29;670;Nej;5-112510-Flötningen.csv;https://opendata-download-metobs.smhi.se/api/version/1.0/parameter/5/station/112510/period/corrected-archive/data.csv
106100;Folkärna;60.17;16.31;68;Nej;5-106100-Folkärna.csv;https://opendata-download-metobs.smhi.se/api/version/1.0/parameter/5/station/106100/period/corrected-archive/data.csv
106640;Forsbacka;60.62;16.92;65;Nej;5-106640-Forsbacka.csv;https://opendata-download-metobs.smhi.se/api/version/1.0/parameter/5/station/106640/period/corrected-archive/data.csv
137080;Forse;63.15;17.02;125.604;Ja;5-137080-Forse.csv;https://opendata-download-metobs.smhi.se/api/version/1.0/parameter/5/station/137080/period/corrected-archive/data.csv
74430;Forserum;57.7;14.47;275;Nej;5-74430-Forserum.csv;https://opendata-download-metobs.smhi.se/api/version/1.0/parameter/5/station/74430/period/corrected-archive/data.csv
83380;Forshem;58.61;13.5;60;Nej;5-83380-Forshem.csv;https://opendata-download-metobs.smhi.se/api/version/1.0/parameter/5/station/83380/period/corrected-archive/data.csv
93580;Forshult;59.96;13.53;110;Nej;5-93580-Forshult.csv;https://opendata-download-metobs.smhi.se/api/version/1.0/parameter/5/station/93580/period/corrected-archive/data.csv
75710;Forsnäs;57.85;15.22;190;Nej;5-75710-Forsnäs.csv;https://opendata-download-metobs.smhi.se/api/version/1.0/parameter/5/station/75710/period/corrected-archive/data.csv
136310;Forsnäset;63.52;16.68;200;Nej;5-136310-Forsnäset.csv;https://opendata-download-metobs.smhi.se/api/version/1.0/parameter/5/station/136310/period/corrected-archive/data.csv
122010;Foskros;62;12.67;545;Nej;5-122010-Foskros.csv;https://opendata-download-metobs.smhi.se/api/version/1.0/parameter/5/station/122010/period/corrected-archive/data.csv
72210;Fotskäl D;57.44;12.41;135;Ja;5-72210-Fotskäl_D.csv;https://opendata-download-metobs.smhi.se/api/version/1.0/parameter/5/station/72210/period/corrected-archive/data.csv
126060;Franshammar;62.1;16.67;122;Nej;5-126060-Franshammar.csv;https://opendata-download-metobs.smhi.se/api/version/1.0/parameter/5/station/126060/period/corrected-archive/data.csv
148050;Fredrika;64.08;18.42;300;Nej;5-148050-Fredrika.csv;https://opendata-download-metobs.smhi.se/api/version/1.0/parameter/5/station/148050/period/corrected-archive/data.csv
148040;Fredrika A;64.07;18.36;327.684;Ja;5-148040-Fredrika_A.csv;https://opendata-download-metobs.smhi.se/api/version/1.0/parameter/5/station/148040/period/corrected-archive/data.csv
104090;Fredriksberg;60.14;14.39;304.749;Ja;5-104090-Fredriksberg.csv;https://opendata-download-metobs.smhi.se/api/version/1.0/parameter/5/station/104090/period/corrected-archive/data.csv
65180;Fridlevstad D;56.26;15.54;50;Ja;5-65180-Fridlevstad_D.csv;https://opendata-download-metobs.smhi.se/api/version/1.0/parameter/5/station/65180/period/corrected-archive/data.csv
53550;Friggestad;55.9;13.93;150;Nej;5-53550-Friggestad.csv;https://opendata-download-metobs.smhi.se/api/version/1.0/parameter/5/station/53550/period/corrected-archive/data.csv
144220;Frostviken D;64.39;14.31;331.936;Ja;5-144220-Frostviken_D.csv;https://opendata-download-metobs.smhi.se/api/version/1.0/parameter/5/station/144220/period/corrected-archive/data.csv
93320;Frykfors;59.53;13.26;65;Nej;5-93320-Frykfors.csv;https://opendata-download-metobs.smhi.se/api/version/1.0/parameter/5/station/93320/period/corrected-archive/data.csv
106300;Främlingshem;60.5;16.94;75;Nej;5-106300-Främlingshem.csv;https://opendata-download-metobs.smhi.se/api/version/1.0/parameter/5/station/106300/period/corrected-archive/data.csv
96010;Frändesta;59.01;16.88;22.432;Ja;5-96010-Frändesta.csv;https://opendata-download-metobs.smhi.se/api/version/1.0/parameter/5/station/96010/period/corrected-archive/data.csv
126630;Fränsta;62.5;16.18;110;Nej;5-126630-Fränsta.csv;https://opendata-download-metobs.smhi.se/api/version/1.0/parameter/5/station/126630/period/corrected-archive/data.csv
126300;Fränsta 2;62.52;16.21;110;Nej;5-126300-Fränsta_2.csv;https://opendata-download-metobs.smhi.se/api/version/1.0/parameter/5/station/126300/period/corrected-archive/data.csv
92440;Fröbol;59.65;12.46;60;Nej;5-92440-Fröbol.csv;https://opendata-download-metobs.smhi.se/api/version/1.0/parameter/5/station/92440/period/corrected-archive/data.csv
97420;Frölunda;59.46;17.71;10;Nej;5-97420-Frölunda.csv;https://opendata-download-metobs.smhi.se/api/version/1.0/parameter/5/station/97420/period/corrected-archive/data.csv
65570;Fröseke;56.95;15.78;120;Nej;5-65570-Fröseke.csv;https://opendata-download-metobs.smhi.se/api/version/1.0/parameter/5/station/65570/period/corrected-archive/data.csv
63530;Fröslida;56.87;13.07;70;Nej;5-63530-Fröslida.csv;https://opendata-download-metobs.smhi.se/api/version/1.0/parameter/5/station/63530/period/corrected-archive/data.csv
134110;Frösön;63.2;14.49;376;Ja;5-134110-Frösön.csv;https://opendata-download-metobs.smhi.se/api/version/1.0/parameter/5/station/134110/period/corrected-archive/data.csv
134130;Frösön D;63.19;14.49;375;Nej;5-134130-Frösön_D.csv;https://opendata-download-metobs.smhi.se/api/version/1.0/parameter/5/station/134130/period/corrected-archive/data.csv
97550;Frötuna;59.91;17.86;15;Nej;5-97550-Frötuna.csv;https://opendata-download-metobs.smhi.se/api/version/1.0/parameter/5/station/97550/period/corrected-archive/data.csv
53590;Fuglunda;55.59;13.8;50;Nej;5-53590-Fuglunda.csv;https://opendata-download-metobs.smhi.se/api/version/1.0/parameter/5/station/53590/period/corrected-archive/data.csv
151550;Furuögrund;64.91;21.23;10;Nej;5-151550-Furuögrund.csv;https://opendata-download-metobs.smhi.se/api/version/1.0/parameter/5/station/151550/period/corrected-archive/data.csv
73390;Fägerhult;57.65;13.24;170;Nej;5-73390-Fägerhult.csv;https://opendata-download-metobs.smhi.se/api/version/1.0/parameter/5/station/73390/period/corrected-archive/data.csv
84390;Fägre D;58.64;14.06;87.605;Ja;5-84390-Fägre_D.csv;https://opendata-download-metobs.smhi.se/api/version/1.0/parameter/5/station/84390/period/corrected-archive/data.csv
160740;Fällfors;65.13;20.79;195;Nej;5-160740-Fällfors.csv;https://opendata-download-metobs.smhi.se/api/version/1.0/parameter/5/station/160740/period/corrected-archive/data.csv
95480;Färna;59.78;15.87;80;Nej;5-95480-Färna.csv;https://opendata-download-metobs.smhi.se/api/version/1.0/parameter/5/station/95480/period/corrected-archive/data.csv
144240;Fågelberget D;64.39;14.53;312.749;Ja;5-144240-Fågelberget_D.csv;https://opendata-download-metobs.smhi.se/api/version/1.0/parameter/5/station/144240/period/corrected-archive/data.csv
72640;Fågelnäs;57.77;12.42;110;Nej;5-72640-Fågelnäs.csv;https://opendata-download-metobs.smhi.se/api/version/1.0/parameter/5/station/72640/period/corrected-archive/data.csv
114480;Fågelsjö D;61.8;14.64;412;Ja;5-114480-Fågelsjö_D.csv;https://opendata-download-metobs.smhi.se/api/version/1.0/parameter/5/station/114480/period/corrected-archive/data.csv
79580;Fårö D;57.95;19.25;4;Nej;5-79580-Fårö_D.csv;https://opendata-download-metobs.smhi.se/api/version/1.0/parameter/5/station/79580/period/corrected-archive/data.csv
79520;Fårösund;57.87;19.05;20;Nej;5-79520-Fårösund.csv;https://opendata-download-metobs.smhi.se/api/version/1.0/parameter/5/station/79520/period/corrected-archive/data.csv
78550;Fårösund Ar A;57.92;18.95;12.756;Ja;5-78550-Fårösund_Ar_A.csv;https://opendata-download-metobs.smhi.se/api/version/1.0/parameter/5/station/78550/period/corrected-archive/data.csv
134410;Föllinge A;63.68;14.6;361.8;Ja;5-134410-Föllinge_A.csv;https://opendata-download-metobs.smhi.se/api/version/1.0/parameter/5/station/134410/period/corrected-archive/data.csv
134460;Föllinge-Vägskälet;63.76;14.43;475;Nej;5-134460-Föllinge-Vägskälet.csv;https://opendata-download-metobs.smhi.se/api/version/1.0/parameter/5/station/134460/period/corrected-archive/data.csv
115500;Föne D;61.84;15.87;181.01;Ja;5-115500-Föne_D.csv;https://opendata-download-metobs.smhi.se/api/version/1.0/parameter/5/station/115500/period/corrected-archive/data.csv
76010;Föra;57.01;16.88;4;Nej;5-76010-Föra.csv;https://opendata-download-metobs.smhi.se/api/version/1.0/parameter/5/station/76010/period/corrected-archive/data.csv
94410;Gammalkroppa;59.68;14.32;200;Nej;5-94410-Gammalkroppa.csv;https://opendata-download-metobs.smhi.se/api/version/1.0/parameter/5/station/94410/period/corrected-archive/data.csv
64090;Gammalstorp;56.11;14.62;15;Nej;5-64090-Gammalstorp.csv;https://opendata-download-metobs.smhi.se/api/version/1.0/parameter/5/station/64090/period/corrected-archive/data.csv
106600;Gammelstilla;60.43;16.61;80;Nej;5-106600-Gammelstilla.csv;https://opendata-download-metobs.smhi.se/api/version/1.0/parameter/5/station/106600/period/corrected-archive/data.csv
157790;Gargnäs D;65.33;17.95;300.661;Ja;5-157790-Gargnäs_D.csv;https://opendata-download-metobs.smhi.se/api/version/1.0/parameter/5/station/157790/period/corrected-archive/data.csv
82030;Garn;58.05;12.16;15;Nej;5-82030-Garn.csv;https://opendata-download-metobs.smhi.se/api/version/1.0/parameter/5/station/82030/period/corrected-archive/data.csv
125580;Gastsjön;62.96;15.85;330;Nej;5-125580-Gastsjön.csv;https://opendata-download-metobs.smhi.se/api/version/1.0/parameter/5/station/125580/period/corrected-archive/data.csv
82110;Gendalen;58.16;12.64;87.63;Ja;5-82110-Gendalen.csv;https://opendata-download-metobs.smhi.se/api/version/1.0/parameter/5/station/82110/period/corrected-archive/data.csv
63340;Genevad;56.57;13.03;20;Nej;5-63340-Genevad.csv;https://opendata-download-metobs.smhi.se/api/version/1.0/parameter/5/station/63340/period/corrected-archive/data.csv
84700;Gersebacken;58.75;14.33;145;Nej;5-84700-Gersebacken.csv;https://opendata-download-metobs.smhi.se/api/version/1.0/parameter/5/station/84700/period/corrected-archive/data.csv
104540;Gesunda D;60.89;14.54;184.668;Ja;5-104540-Gesunda_D.csv;https://opendata-download-metobs.smhi.se/api/version/1.0/parameter/5/station/104540/period/corrected-archive/data.csv
76340;Getterum;57.57;16.28;80;Nej;5-76340-Getterum.csv;https://opendata-download-metobs.smhi.se/api/version/1.0/parameter/5/station/76340/period/corrected-archive/data.csv
155800;Gielas;65.33;15.07;570;Nej;5-155800-Gielas.csv;https://opendata-download-metobs.smhi.se/api/version/1.0/parameter/5/station/155800/period/corrected-archive/data.csv
155790;Gielas A;65.33;15.06;578.328;Ja;5-155790-Gielas_A.csv;https://opendata-download-metobs.smhi.se/api/version/1.0/parameter/5/station/155790/period/corrected-archive/data.csv
63010;Gillastig;56.01;13.23;149.194;Ja;5-63010-Gillastig.csv;https://opendata-download-metobs.smhi.se/api/version/1.0/parameter/5/station/63010/period/corrected-archive/data.csv
98060;Gillinge D;59.11;18.65;5;Nej;5-98060-Gillinge_D.csv;https://opendata-download-metobs.smhi.se/api/version/1.0/parameter/5/station/98060/period/corrected-archive/data.csv
73170;Gislaved;57.28;13.53;165;Nej;5-73170-Gislaved.csv;https://opendata-download-metobs.smhi.se/api/version/1.0/parameter/5/station/73170/period/corrected-archive/data.csv
135640;Gisselås;63.7;15.37;320;Nej;5-135640-Gisselås.csv;https://opendata-download-metobs.smhi.se/api/version/1.0/parameter/5/station/135640/period/corrected-archive/data.csv
168760;Gittun;66.3;18.55;410;Nej;5-168760-Gittun.csv;https://opendata-download-metobs.smhi.se/api/version/1.0/parameter/5/station/168760/period/corrected-archive/data.csv
76420;Gladhammar A;57.71;16.45;35.277;Ja;5-76420-Gladhammar_A.csv;https://opendata-download-metobs.smhi.se/api/version/1.0/parameter/5/station/76420/period/corrected-archive/data.csv
86510;Glindran;58.84;16.42;54.997;Ja;5-86510-Glindran.csv;https://opendata-download-metobs.smhi.se/api/version/1.0/parameter/5/station/86510/period/corrected-archive/data.csv
62550;Glommen;56.93;12.36;6;Nej;5-62550-Glommen.csv;https://opendata-download-metobs.smhi.se/api/version/1.0/parameter/5/station/62550/period/corrected-archive/data.csv
159770;Glommersträsk;65.28;19.68;394.387;Ja;5-159770-Glommersträsk.csv;https://opendata-download-metobs.smhi.se/api/version/1.0/parameter/5/station/159770/period/corrected-archive/data.csv
127040;Gnarp;62.06;17.28;70;Nej;5-127040-Gnarp.csv;https://opendata-download-metobs.smhi.se/api/version/1.0/parameter/5/station/127040/period/corrected-archive/data.csv
97030;Gnesta;59.1;17.32;46.903;Ja;5-97030-Gnesta.csv;https://opendata-download-metobs.smhi.se/api/version/1.0/parameter/5/station/97030/period/corrected-archive/data.csv
85450;Godegård D;58.76;15.1;133.639;Ja;5-85450-Godegård_D.csv;https://opendata-download-metobs.smhi.se/api/version/1.0/parameter/5/station/85450/period/corrected-archive/data.csv
78340;Gothem;57.57;18.77;10;Nej;5-78340-Gothem.csv;https://opendata-download-metobs.smhi.se/api/version/1.0/parameter/5/station/78340/period/corrected-archive/data.csv
89240;Gotska Sandön;58.39;19.2;12;Nej;5-89240-Gotska_Sandön.csv;https://opendata-download-metobs.smhi.se/api/version/1.0/parameter/5/station/89240/period/corrected-archive/data.csv
89230;Gotska Sandön A;58.39;19.19;15.911;Ja;5-89230-Gotska_Sandön_A.csv;https://opendata-download-metobs.smhi.se/api/version/1.0/parameter/5/station/89230/period/corrected-archive/data.csv
98430;Gottröra;59.72;18.17;20;Nej;5-98430-Gottröra.csv;https://opendata-download-metobs.smhi.se/api/version/1.0/parameter/5/station/98430/period/corrected-archive/data.csv
127600;Gran;62.02;17.63;20;Nej;5-127600-Gran.csv;https://opendata-download-metobs.smhi.se/api/version/1.0/parameter/5/station/127600/period/corrected-archive/data.csv
145710;Granberget;64.3;15.92;480;Nej;5-145710-Granberget.csv;https://opendata-download-metobs.smhi.se/api/version/1.0/parameter/5/station/145710/period/corrected-archive/data.csv
96060;Granhed D;59.1;16.43;55.277;Ja;5-96060-Granhed_D.csv;https://opendata-download-metobs.smhi.se/api/version/1.0/parameter/5/station/96060/period/corrected-archive/data.csv
181740;Granhult;67.12;21.82;270.287;Ja;5-181740-Granhult.csv;https://opendata-download-metobs.smhi.se/api/version/1.0/parameter/5/station/181740/period/corrected-archive/data.csv
136710;Graninge;63.07;16.95;205;Nej;5-136710-Graninge.csv;https://opendata-download-metobs.smhi.se/api/version/1.0/parameter/5/station/136710/period/corrected-archive/data.csv
93730;Grannäs;59.43;13.83;60;Nej;5-93730-Grannäs.csv;https://opendata-download-metobs.smhi.se/api/version/1.0/parameter/5/station/93730/period/corrected-archive/data.csv
75130;Granshult;57.2;15.08;315;Nej;5-75130-Granshult.csv;https://opendata-download-metobs.smhi.se/api/version/1.0/parameter/5/station/75130/period/corrected-archive/data.csv
147300;Gransjö;64.49;17.46;440;Nej;5-147300-Gransjö.csv;https://opendata-download-metobs.smhi.se/api/version/1.0/parameter/5/station/147300/period/corrected-archive/data.csv
148200;Granträsk D;64.33;18.38;455;Nej;5-148200-Granträsk_D.csv;https://opendata-download-metobs.smhi.se/api/version/1.0/parameter/5/station/148200/period/corrected-archive/data.csv
84730;Granvik;58.63;14.55;95;Nej;5-84730-Granvik.csv;https://opendata-download-metobs.smhi.se/api/version/1.0/parameter/5/station/84730/period/corrected-archive/data.csv
103290;Granåbron;60.44;13.89;310;Nej;5-103290-Granåbron.csv;https://opendata-download-metobs.smhi.se/api/version/1.0/parameter/5/station/103290/period/corrected-archive/data.csv
163970;Granån;65.92;23.43;20;Nej;5-163970-Granån.csv;https://opendata-download-metobs.smhi.se/api/version/1.0/parameter/5/station/163970/period/corrected-archive/data.csv
146010;Granåsen;64.01;16.81;390;Nej;5-146010-Granåsen.csv;https://opendata-download-metobs.smhi.se/api/version/1.0/parameter/5/station/146010/period/corrected-archive/data.csv
149150;Granö D;64.25;19.31;185;Ja;5-149150-Granö_D.csv;https://opendata-download-metobs.smhi.se/api/version/1.0/parameter/5/station/149150/period/corrected-archive/data.csv
72330;Grebbeshult;57.55;12.46;53.203;Ja;5-72330-Grebbeshult.csv;https://opendata-download-metobs.smhi.se/api/version/1.0/parameter/5/station/72330/period/corrected-archive/data.csv
81420;Grebbestad;58.69;11.25;10;Nej;5-81420-Grebbestad.csv;https://opendata-download-metobs.smhi.se/api/version/1.0/parameter/5/station/81420/period/corrected-archive/data.csv
94330;Grecksåsar;59.55;14.81;227;Nej;5-94330-Grecksåsar.csv;https://opendata-download-metobs.smhi.se/api/version/1.0/parameter/5/station/94330/period/corrected-archive/data.csv
135200;Greningen;63.33;15.41;390;Nej;5-135200-Greningen.csv;https://opendata-download-metobs.smhi.se/api/version/1.0/parameter/5/station/135200/period/corrected-archive/data.csv
72070;Grimeton;57.15;12.44;25;Nej;5-72070-Grimeton.csv;https://opendata-download-metobs.smhi.se/api/version/1.0/parameter/5/station/72070/period/corrected-archive/data.csv
64200;Grimsmåla;56.33;14.88;90;Nej;5-64200-Grimsmåla.csv;https://opendata-download-metobs.smhi.se/api/version/1.0/parameter/5/station/64200/period/corrected-archive/data.csv
97050;Grindsjön;59.08;17.86;45;Nej;5-97050-Grindsjön.csv;https://opendata-download-metobs.smhi.se/api/version/1.0/parameter/5/station/97050/period/corrected-archive/data.csv
93200;Grums;59.35;13.11;67.634;Nej;5-93200-Grums.csv;https://opendata-download-metobs.smhi.se/api/version/1.0/parameter/5/station/93200/period/corrected-archive/data.csv
112170;Grundforsen;61.28;12.86;412;Nej;5-112170-Grundforsen.csv;https://opendata-download-metobs.smhi.se/api/version/1.0/parameter/5/station/112170/period/corrected-archive/data.csv
64120;Grundsjön;56.13;14.59;140;Nej;5-64120-Grundsjön.csv;https://opendata-download-metobs.smhi.se/api/version/1.0/parameter/5/station/64120/period/corrected-archive/data.csv
116050;Gruvberget;61.1;16.16;358;Nej;5-116050-Gruvberget.csv;https://opendata-download-metobs.smhi.se/api/version/1.0/parameter/5/station/116050/period/corrected-archive/data.csv
105420;Grycksbo D;60.69;15.49;160;Nej;5-105420-Grycksbo_D.csv;https://opendata-download-metobs.smhi.se/api/version/1.0/parameter/5/station/105420/period/corrected-archive/data.csv
85660;Gryt;58.9;15.37;105;Nej;5-85660-Gryt.csv;https://opendata-download-metobs.smhi.se/api/version/1.0/parameter/5/station/85660/period/corrected-archive/data.csv
94420;Grythyttan;59.71;14.53;185;Ja;5-94420-Grythyttan.csv;https://opendata-download-metobs.smhi.se/api/version/1.0/parameter/5/station/94420/period/corrected-archive/data.csv
105050;Grängesberg;60.09;15.02;280;Nej;5-105050-Grängesberg.csv;https://opendata-download-metobs.smhi.se/api/version/1.0/parameter/5/station/105050/period/corrected-archive/data.csv
84610;Gränna;58.03;14.47;130;Nej;5-84610-Gränna.csv;https://opendata-download-metobs.smhi.se/api/version/1.0/parameter/5/station/84610/period/corrected-archive/data.csv
102700;Gräsfall;60.45;12.72;400;Nej;5-102700-Gräsfall.csv;https://opendata-download-metobs.smhi.se/api/version/1.0/parameter/5/station/102700/period/corrected-archive/data.csv
92560;Gräsmark;59.93;12.9;165;Nej;5-92560-Gräsmark.csv;https://opendata-download-metobs.smhi.se/api/version/1.0/parameter/5/station/92560/period/corrected-archive/data.csv
82200;Grästorp;58.34;12.68;55;Nej;5-82200-Grästorp.csv;https://opendata-download-metobs.smhi.se/api/version/1.0/parameter/5/station/82200/period/corrected-archive/data.csv
93310;Gräsås D;59.53;13.94;111.815;Ja;5-93310-Gräsås_D.csv;https://opendata-download-metobs.smhi.se/api/version/1.0/parameter/5/station/93310/period/corrected-archive/data.csv
105360;Gråda Kraftverk;60.6;15.01;155;Nej;5-105360-Gråda_Kraftverk.csv;https://opendata-download-metobs.smhi.se/api/version/1.0/parameter/5/station/105360/period/corrected-archive/data.csv
132680;Gråsjön;63.73;12.87;550;Nej;5-132680-Gråsjön.csv;https://opendata-download-metobs.smhi.se/api/version/1.0/parameter/5/station/132680/period/corrected-archive/data.csv
114300;Gråtbäck;61.41;14.75;524;Nej;5-114300-Gråtbäck.csv;https://opendata-download-metobs.smhi.se/api/version/1.0/parameter/5/station/114300/period/corrected-archive/data.csv
95380;Grönbo;59.64;15.42;85;Nej;5-95380-Grönbo.csv;https://opendata-download-metobs.smhi.se/api/version/1.0/parameter/5/station/95380/period/corrected-archive/data.csv
76500;Grönhult;57.78;16.16;120;Nej;5-76500-Grönhult.csv;https://opendata-download-metobs.smhi.se/api/version/1.0/parameter/5/station/76500/period/corrected-archive/data.csv
85610;Grönkulla;58.58;15.46;115;Nej;5-85610-Grönkulla.csv;https://opendata-download-metobs.smhi.se/api/version/1.0/parameter/5/station/85610/period/corrected-archive/data.csv
150440;Grönliden;64.73;20.19;300;Ja;5-150440-Grönliden.csv;https://opendata-download-metobs.smhi.se/api/version/1.0/parameter/5/station/150440/period/corrected-archive/data.csv
99150;Grönskär;59.28;19.03;9;Nej;5-99150-Grönskär.csv;https://opendata-download-metobs.smhi.se/api/version/1.0/parameter/5/station/99150/period/corrected-archive/data.csv
65610;Grönåsen;56.83;15.45;215;Nej;5-65610-Grönåsen.csv;https://opendata-download-metobs.smhi.se/api/version/1.0/parameter/5/station/65610/period/corrected-archive/data.csv
122610;Grövelsjön;62.1;12.32;815;Nej;5-122610-Grövelsjön.csv;https://opendata-download-metobs.smhi.se/api/version/1.0/parameter/5/station/122610/period/corrected-archive/data.csv
145130;Gubbhögen A;64.22;15.55;310.221;Ja;5-145130-Gubbhögen_A.csv;https://opendata-download-metobs.smhi.se/api/version/1.0/parameter/5/station/145130/period/corrected-archive/data.csv
84690;Gudhammar;58.91;14.23;75;Nej;5-84690-Gudhammar.csv;https://opendata-download-metobs.smhi.se/api/version/1.0/parameter/5/station/84690/period/corrected-archive/data.csv
65630;Gullaboås;56.43;15.88;65;Nej;5-65630-Gullaboås.csv;https://opendata-download-metobs.smhi.se/api/version/1.0/parameter/5/station/65630/period/corrected-archive/data.csv
65530;Gullaskruv;56.87;15.68;175;Nej;5-65530-Gullaskruv.csv;https://opendata-download-metobs.smhi.se/api/version/1.0/parameter/5/station/65530/period/corrected-archive/data.csv
75490;Gullringen;57.81;15.67;165;Nej;5-75490-Gullringen.csv;https://opendata-download-metobs.smhi.se/api/version/1.0/parameter/5/station/75490/period/corrected-archive/data.csv
84590;Gullspång;58.99;14.11;61.015;Ja;5-84590-Gullspång.csv;https://opendata-download-metobs.smhi.se/api/version/1.0/parameter/5/station/84590/period/corrected-archive/data.csv
137490;Gulsele;63.82;17.13;260;Nej;5-137490-Gulsele.csv;https://opendata-download-metobs.smhi.se/api/version/1.0/parameter/5/station/137490/period/corrected-archive/data.csv
147570;Gunnarn;65.01;17.7;280;Nej;5-147570-Gunnarn.csv;https://opendata-download-metobs.smhi.se/api/version/1.0/parameter/5/station/147570/period/corrected-archive/data.csv
147560;Gunnarn A;65.01;17.7;275.491;Ja;5-147560-Gunnarn_A.csv;https://opendata-download-metobs.smhi.se/api/version/1.0/parameter/5/station/147560/period/corrected-archive/data.csv
76430;Gunnebo;57.72;16.53;18;Nej;5-76430-Gunnebo.csv;https://opendata-download-metobs.smhi.se/api/version/1.0/parameter/5/station/76430/period/corrected-archive/data.csv
81590;Gunnesbyn;58.98;11.7;145;Nej;5-81590-Gunnesbyn.csv;https://opendata-download-metobs.smhi.se/api/version/1.0/parameter/5/station/81590/period/corrected-archive/data.csv
98180;Gustavsberg;59.32;18.37;10;Nej;5-98180-Gustavsberg.csv;https://opendata-download-metobs.smhi.se/api/version/1.0/parameter/5/station/98180/period/corrected-archive/data.csv
103090;Gustavsfors;60.15;13.8;190;Ja;5-103090-Gustavsfors.csv;https://opendata-download-metobs.smhi.se/api/version/1.0/parameter/5/station/103090/period/corrected-archive/data.csv
103100;Gustavsfors A;60.15;13.8;187.153;Ja;5-103100-Gustavsfors_A.csv;https://opendata-download-metobs.smhi.se/api/version/1.0/parameter/5/station/103100/period/corrected-archive/data.csv
125490;Gustavsnäs D;62.81;15.93;300;Nej;5-125490-Gustavsnäs_D.csv;https://opendata-download-metobs.smhi.se/api/version/1.0/parameter/5/station/125490/period/corrected-archive/data.csv
86260;Gustorp D;58.42;16.13;64.718;Ja;5-86260-Gustorp_D.csv;https://opendata-download-metobs.smhi.se/api/version/1.0/parameter/5/station/86260/period/corrected-archive/data.csv
172740;Gyljen;66.38;22.71;50;Nej;5-172740-Gyljen.csv;https://opendata-download-metobs.smhi.se/api/version/1.0/parameter/5/station/172740/period/corrected-archive/data.csv
64220;Gyngamåla;56.35;14.82;110;Nej;5-64220-Gyngamåla.csv;https://opendata-download-metobs.smhi.se/api/version/1.0/parameter/5/station/64220/period/corrected-archive/data.csv
106170;Gysinge;60.28;16.89;63;Nej;5-106170-Gysinge.csv;https://opendata-download-metobs.smhi.se/api/version/1.0/parameter/5/station/106170/period/corrected-archive/data.csv
94600;Gyttorp;59.5;14.96;115;Nej;5-94600-Gyttorp.csv;https://opendata-download-metobs.smhi.se/api/version/1.0/parameter/5/station/94600/period/corrected-archive/data.csv
144300;Gäddede;64.5;14.16;328;Nej;5-144300-Gäddede.csv;https://opendata-download-metobs.smhi.se/api/version/1.0/parameter/5/station/144300/period/corrected-archive/data.csv
144310;Gäddede A;64.5;14.22;553.025;Ja;5-144310-Gäddede_A.csv;https://opendata-download-metobs.smhi.se/api/version/1.0/parameter/5/station/144310/period/corrected-archive/data.csv
180760;Gällivare A;67.14;20.64;358.975;Ja;5-180760-Gällivare_A.csv;https://opendata-download-metobs.smhi.se/api/version/1.0/parameter/5/station/180760/period/corrected-archive/data.csv
180740;Gällivare Flygplats;67.14;20.81;312;Nej;5-180740-Gällivare_Flygplats.csv;https://opendata-download-metobs.smhi.se/api/version/1.0/parameter/5/station/180740/period/corrected-archive/data.csv
171850;Gällivare-Flakaberg;66.52;21.91;240;Nej;5-171850-Gällivare-Flakaberg.csv;https://opendata-download-metobs.smhi.se/api/version/1.0/parameter/5/station/171850/period/corrected-archive/data.csv
106720;Gärdsjö;60.93;15.23;200;Nej;5-106720-Gärdsjö.csv;https://opendata-download-metobs.smhi.se/api/version/1.0/parameter/5/station/106720/period/corrected-archive/data.csv
134060;Gärdsta;63.14;14.28;295;Nej;5-134060-Gärdsta.csv;https://opendata-download-metobs.smhi.se/api/version/1.0/parameter/5/station/134060/period/corrected-archive/data.csv
54650;Gärsnäs;55.55;14.18;45;Nej;5-54650-Gärsnäs.csv;https://opendata-download-metobs.smhi.se/api/version/1.0/parameter/5/station/54650/period/corrected-archive/data.csv
106670;Gästrike-Hammarby 1;60.55;16.58;70;Nej;5-106670-Gästrike-Hammarby_1.csv;https://opendata-download-metobs.smhi.se/api/version/1.0/parameter/5/station/106670/period/corrected-archive/data.csv
106680;Gästrike-Hammarby 2;60.55;16.58;70;Nej;5-106680-Gästrike-Hammarby_2.csv;https://opendata-download-metobs.smhi.se/api/version/1.0/parameter/5/station/106680/period/corrected-archive/data.csv
106690;Gästrike-Hammarby 3;60.55;16.58;70;Nej;5-106690-Gästrike-Hammarby_3.csv;https://opendata-download-metobs.smhi.se/api/version/1.0/parameter/5/station/106690/period/corrected-archive/data.csv
106630;Gästrike-Hammarby 4;60.55;16.58;70;Nej;5-106630-Gästrike-Hammarby_4.csv;https://opendata-download-metobs.smhi.se/api/version/1.0/parameter/5/station/106630/period/corrected-archive/data.csv
106360;Gästrike-Hammarby D;60.56;16.59;65;Ja;5-106360-Gästrike-Hammarby_D.csv;https://opendata-download-metobs.smhi.se/api/version/1.0/parameter/5/station/106360/period/corrected-archive/data.csv
107400;Gävle;60.65;17.17;16;Nej;5-107400-Gävle.csv;https://opendata-download-metobs.smhi.se/api/version/1.0/parameter/5/station/107400/period/corrected-archive/data.csv
107420;Gävle A;60.72;17.16;16.125;Ja;5-107420-Gävle_A.csv;https://opendata-download-metobs.smhi.se/api/version/1.0/parameter/5/station/107420/period/corrected-archive/data.csv
107410;Gävle-Lexe;60.68;17.1;25;Nej;5-107410-Gävle-Lexe.csv;https://opendata-download-metobs.smhi.se/api/version/1.0/parameter/5/station/107410/period/corrected-archive/data.csv
107430;Gävle-Åbyggeby;60.73;17.11;35;Ja;5-107430-Gävle-Åbyggeby.csv;https://opendata-download-metobs.smhi.se/api/version/1.0/parameter/5/station/107430/period/corrected-archive/data.csv
127480;Gåltjärn;62.79;17.55;269.122;Ja;5-127480-Gåltjärn.csv;https://opendata-download-metobs.smhi.se/api/version/1.0/parameter/5/station/127480/period/corrected-archive/data.csv
72010;Gångarebo;57.02;12.92;190;Nej;5-72010-Gångarebo.csv;https://opendata-download-metobs.smhi.se/api/version/1.0/parameter/5/station/72010/period/corrected-archive/data.csv
132610;Gånälven;63.98;12.73;450;Nej;5-132610-Gånälven.csv;https://opendata-download-metobs.smhi.se/api/version/1.0/parameter/5/station/132610/period/corrected-archive/data.csv
84520;Gårdsjö A;58.88;14.39;210.675;Ja;5-84520-Gårdsjö_A.csv;https://opendata-download-metobs.smhi.se/api/version/1.0/parameter/5/station/84520/period/corrected-archive/data.csv
105400;Gårdvik;60.72;15.81;190;Nej;5-105400-Gårdvik.csv;https://opendata-download-metobs.smhi.se/api/version/1.0/parameter/5/station/105400/period/corrected-archive/data.csv
94460;Gåsbornshyttan;59.89;14.34;225;Nej;5-94460-Gåsbornshyttan.csv;https://opendata-download-metobs.smhi.se/api/version/1.0/parameter/5/station/94460/period/corrected-archive/data.csv
135420;Gåxsjö D;63.67;15.1;315;Nej;5-135420-Gåxsjö_D.csv;https://opendata-download-metobs.smhi.se/api/version/1.0/parameter/5/station/135420/period/corrected-archive/data.csv
74350;Gödeberg;57.57;14.63;350;Nej;5-74350-Gödeberg.csv;https://opendata-download-metobs.smhi.se/api/version/1.0/parameter/5/station/74350/period/corrected-archive/data.csv
112360;Gördalen D;61.6;12.5;620;Nej;5-112360-Gördalen_D.csv;https://opendata-download-metobs.smhi.se/api/version/1.0/parameter/5/station/112360/period/corrected-archive/data.csv
83370;Gössäter;58.62;13.47;60;Nej;5-83370-Gössäter.csv;https://opendata-download-metobs.smhi.se/api/version/1.0/parameter/5/station/83370/period/corrected-archive/data.csv
72630;Göteborg;57.7;11.97;30;Nej;5-72630-Göteborg.csv;https://opendata-download-metobs.smhi.se/api/version/1.0/parameter/5/station/72630/period/corrected-archive/data.csv
71420;Göteborg A;57.72;11.99;3.038;Ja;5-71420-Göteborg_A.csv;https://opendata-download-metobs.smhi.se/api/version/1.0/parameter/5/station/71420/period/corrected-archive/data.csv
75640;Götestorp;57.27;15.05;320;Nej;5-75640-Götestorp.csv;https://opendata-download-metobs.smhi.se/api/version/1.0/parameter/5/station/75640/period/corrected-archive/data.csv
74550;Habo;57.91;14.08;175;Nej;5-74550-Habo.csv;https://opendata-download-metobs.smhi.se/api/version/1.0/parameter/5/station/74550/period/corrected-archive/data.csv
72280;Haby;57.47;12.65;60;Nej;5-72280-Haby.csv;https://opendata-download-metobs.smhi.se/api/version/1.0/parameter/5/station/72280/period/corrected-archive/data.csv
97350;Hacksta;59.55;17.05;16.253;Nej;5-97350-Hacksta.csv;https://opendata-download-metobs.smhi.se/api/version/1.0/parameter/5/station/97350/period/corrected-archive/data.csv
85550;Haddebo;58.92;15.37;120;Nej;5-85550-Haddebo.csv;https://opendata-download-metobs.smhi.se/api/version/1.0/parameter/5/station/85550/period/corrected-archive/data.csv
105170;Haggården;60.27;15.98;100;Nej;5-105170-Haggården.csv;https://opendata-download-metobs.smhi.se/api/version/1.0/parameter/5/station/105170/period/corrected-archive/data.csv
74180;Hagshult Mo;57.29;14.14;169.6;Ja;5-74180-Hagshult_Mo.csv;https://opendata-download-metobs.smhi.se/api/version/1.0/parameter/5/station/74180/period/corrected-archive/data.csv
84720;Hagåsen;58.43;14.1;130;Nej;5-84720-Hagåsen.csv;https://opendata-download-metobs.smhi.se/api/version/1.0/parameter/5/station/84720/period/corrected-archive/data.csv
171970;Hakkas;66.92;21.58;270;Nej;5-171970-Hakkas.csv;https://opendata-download-metobs.smhi.se/api/version/1.0/parameter/5/station/171970/period/corrected-archive/data.csv
54430;Hallamölla;55.71;14.01;90;Nej;5-54430-Hallamölla.csv;https://opendata-download-metobs.smhi.se/api/version/1.0/parameter/5/station/54430/period/corrected-archive/data.csv
62260;Hallands Väderö A;56.45;12.55;9.172;Ja;5-62260-Hallands_Väderö_A.csv;https://opendata-download-metobs.smhi.se/api/version/1.0/parameter/5/station/62260/period/corrected-archive/data.csv
134120;Hallen;63.18;14.09;330;Nej;5-134120-Hallen.csv;https://opendata-download-metobs.smhi.se/api/version/1.0/parameter/5/station/134120/period/corrected-archive/data.csv
135460;Hallhåxåsen A;63.77;15.33;375.391;Ja;5-135460-Hallhåxåsen_A.csv;https://opendata-download-metobs.smhi.se/api/version/1.0/parameter/5/station/135460/period/corrected-archive/data.csv
95040;Hallsberg D;59.06;15.08;52;Nej;5-95040-Hallsberg_D.csv;https://opendata-download-metobs.smhi.se/api/version/1.0/parameter/5/station/95040/period/corrected-archive/data.csv
96390;Hallstaberg;59.65;16.8;40.781;Ja;5-96390-Hallstaberg.csv;https://opendata-download-metobs.smhi.se/api/version/1.0/parameter/5/station/96390/period/corrected-archive/data.csv
135440;Hallviken;63.73;15.5;337;Nej;5-135440-Hallviken.csv;https://opendata-download-metobs.smhi.se/api/version/1.0/parameter/5/station/135440/period/corrected-archive/data.csv
97460;Halmsjön;59.66;17.3;30;Nej;5-97460-Halmsjön.csv;https://opendata-download-metobs.smhi.se/api/version/1.0/parameter/5/station/97460/period/corrected-archive/data.csv
62400;Halmstad;56.68;12.92;32;Ja;5-62400-Halmstad.csv;https://opendata-download-metobs.smhi.se/api/version/1.0/parameter/5/station/62400/period/corrected-archive/data.csv
62390;Halmstad;56.68;12.92;25;Nej;5-62390-Halmstad.csv;https://opendata-download-metobs.smhi.se/api/version/1.0/parameter/5/station/62390/period/corrected-archive/data.csv
62410;Halmstad flygflottilj;56.68;12.83;30;Nej;5-62410-Halmstad_flygflottilj.csv;https://opendata-download-metobs.smhi.se/api/version/1.0/parameter/5/station/62410/period/corrected-archive/data.csv
62420;Halmstad flygplats;56.67;12.85;4;Nej;5-62420-Halmstad_flygplats.csv;https://opendata-download-metobs.smhi.se/api/version/1.0/parameter/5/station/62420/period/corrected-archive/data.csv
136060;Hammarstrand D;63.1;16.35;178;Nej;5-136060-Hammarstrand_D.csv;https://opendata-download-metobs.smhi.se/api/version/1.0/parameter/5/station/136060/period/corrected-archive/data.csv
93260;Hammarö;59.32;13.54;62;Ja;5-93260-Hammarö.csv;https://opendata-download-metobs.smhi.se/api/version/1.0/parameter/5/station/93260/period/corrected-archive/data.csv
54310;Hammenhög;55.5;14.16;52;Nej;5-54310-Hammenhög.csv;https://opendata-download-metobs.smhi.se/api/version/1.0/parameter/5/station/54310/period/corrected-archive/data.csv
135350;Hammerdal D;63.57;15.37;330.013;Ja;5-135350-Hammerdal_D.csv;https://opendata-download-metobs.smhi.se/api/version/1.0/parameter/5/station/135350/period/corrected-archive/data.csv
97060;Hamra;59.22;17.85;44;Nej;5-97060-Hamra.csv;https://opendata-download-metobs.smhi.se/api/version/1.0/parameter/5/station/97060/period/corrected-archive/data.csv
114410;Hamra A;61.66;14.99;453.588;Ja;5-114410-Hamra_A.csv;https://opendata-download-metobs.smhi.se/api/version/1.0/parameter/5/station/114410/period/corrected-archive/data.csv
124290;Handsjön D;62.48;14.8;291.343;Ja;5-124290-Handsjön_D.csv;https://opendata-download-metobs.smhi.se/api/version/1.0/parameter/5/station/124290/period/corrected-archive/data.csv
64020;Hanö A;56.01;14.85;58.622;Ja;5-64020-Hanö_A.csv;https://opendata-download-metobs.smhi.se/api/version/1.0/parameter/5/station/64020/period/corrected-archive/data.csv
163960;Haparanda A;65.82;24.11;13.243;Ja;5-163960-Haparanda_A.csv;https://opendata-download-metobs.smhi.se/api/version/1.0/parameter/5/station/163960/period/corrected-archive/data.csv
163950;Haparanda D;65.86;24.11;9.1;Ja;5-163950-Haparanda_D.csv;https://opendata-download-metobs.smhi.se/api/version/1.0/parameter/5/station/163950/period/corrected-archive/data.csv
170670;Harads D;66.08;20.96;52.357;Ja;5-170670-Harads_D.csv;https://opendata-download-metobs.smhi.se/api/version/1.0/parameter/5/station/170670/period/corrected-archive/data.csv
161780;Haraholmen;65.24;21.63;4;Nej;5-161780-Haraholmen.csv;https://opendata-download-metobs.smhi.se/api/version/1.0/parameter/5/station/161780/period/corrected-archive/data.csv
160610;Haraliden;65.45;20.1;450;Nej;5-160610-Haraliden.csv;https://opendata-download-metobs.smhi.se/api/version/1.0/parameter/5/station/160610/period/corrected-archive/data.csv
107080;Harbo;60.14;17.24;40;Nej;5-107080-Harbo.csv;https://opendata-download-metobs.smhi.se/api/version/1.0/parameter/5/station/107080/period/corrected-archive/data.csv
108600;Harg;60.18;18.4;15;Nej;5-108600-Harg.csv;https://opendata-download-metobs.smhi.se/api/version/1.0/parameter/5/station/108600/period/corrected-archive/data.csv
149010;Harrsele;64.02;19.57;115;Nej;5-149010-Harrsele.csv;https://opendata-download-metobs.smhi.se/api/version/1.0/parameter/5/station/149010/period/corrected-archive/data.csv
180710;Harrträsk;67.03;20.7;410;Nej;5-180710-Harrträsk.csv;https://opendata-download-metobs.smhi.se/api/version/1.0/parameter/5/station/180710/period/corrected-archive/data.csv
87150;Harstena;58.25;17.01;5;Nej;5-87150-Harstena.csv;https://opendata-download-metobs.smhi.se/api/version/1.0/parameter/5/station/87150/period/corrected-archive/data.csv
87140;Harstena A;58.25;17.01;14;Ja;5-87140-Harstena_A.csv;https://opendata-download-metobs.smhi.se/api/version/1.0/parameter/5/station/87140/period/corrected-archive/data.csv
115710;Hasberget;61.43;14.85;480;Nej;5-115710-Hasberget.csv;https://opendata-download-metobs.smhi.se/api/version/1.0/parameter/5/station/115710/period/corrected-archive/data.csv
126070;Hassela D;62.1;16.78;150;Nej;5-126070-Hassela_D.csv;https://opendata-download-metobs.smhi.se/api/version/1.0/parameter/5/station/126070/period/corrected-archive/data.csv
94710;Hasselfors;59.1;14.65;75;Nej;5-94710-Hasselfors.csv;https://opendata-download-metobs.smhi.se/api/version/1.0/parameter/5/station/94710/period/corrected-archive/data.csv
62080;Hasslarp;56.13;12.82;10;Nej;5-62080-Hasslarp.csv;https://opendata-download-metobs.smhi.se/api/version/1.0/parameter/5/station/62080/period/corrected-archive/data.csv
138360;Hattsjöbäcken D;63.59;18.95;170;Ja;5-138360-Hattsjöbäcken_D.csv;https://opendata-download-metobs.smhi.se/api/version/1.0/parameter/5/station/138360/period/corrected-archive/data.csv
78510;Hau träsk;57.89;18.99;5;Nej;5-78510-Hau_träsk.csv;https://opendata-download-metobs.smhi.se/api/version/1.0/parameter/5/station/78510/period/corrected-archive/data.csv
63480;Havraryd D;56.79;13.14;185;Nej;5-63480-Havraryd_D.csv;https://opendata-download-metobs.smhi.se/api/version/1.0/parameter/5/station/63480/period/corrected-archive/data.csv
158830;Hedberg;65.43;18.81;440;Nej;5-158830-Hedberg.csv;https://opendata-download-metobs.smhi.se/api/version/1.0/parameter/5/station/158830/period/corrected-archive/data.csv
123250;Hede;62.41;13.52;430;Nej;5-123250-Hede.csv;https://opendata-download-metobs.smhi.se/api/version/1.0/parameter/5/station/123250/period/corrected-archive/data.csv
105160;Hedemora;60.28;15.99;115;Nej;5-105160-Hedemora.csv;https://opendata-download-metobs.smhi.se/api/version/1.0/parameter/5/station/105160/period/corrected-archive/data.csv
81310;Heden;58.52;11.52;48.841;Ja;5-81310-Heden.csv;https://opendata-download-metobs.smhi.se/api/version/1.0/parameter/5/station/81310/period/corrected-archive/data.csv
74410;Hedenstorp;57.77;14.11;210;Nej;5-74410-Hedenstorp.csv;https://opendata-download-metobs.smhi.se/api/version/1.0/parameter/5/station/74410/period/corrected-archive/data.csv
107230;Hedesunda;60.41;17.02;65;Ja;5-107230-Hedesunda.csv;https://opendata-download-metobs.smhi.se/api/version/1.0/parameter/5/station/107230/period/corrected-archive/data.csv
123340;Hedeviken;62.41;13.67;410;Ja;5-123340-Hedeviken.csv;https://opendata-download-metobs.smhi.se/api/version/1.0/parameter/5/station/123340/period/corrected-archive/data.csv
161650;Hednoret;65.83;21.55;27;Nej;5-161650-Hednoret.csv;https://opendata-download-metobs.smhi.se/api/version/1.0/parameter/5/station/161650/period/corrected-archive/data.csv
78420;Hejnum;57.7;18.63;53.422;Ja;5-78420-Hejnum.csv;https://opendata-download-metobs.smhi.se/api/version/1.0/parameter/5/station/78420/period/corrected-archive/data.csv
76570;Hellerö;57.95;16.65;11.329;Ja;5-76570-Hellerö.csv;https://opendata-download-metobs.smhi.se/api/version/1.0/parameter/5/station/76570/period/corrected-archive/data.csv
62030;Helsingborg;56.04;12.69;5;Nej;5-62030-Helsingborg.csv;https://opendata-download-metobs.smhi.se/api/version/1.0/parameter/5/station/62030/period/corrected-archive/data.csv
62020;Helsingborg 2;56.04;12.75;46.027;Nej;5-62020-Helsingborg_2.csv;https://opendata-download-metobs.smhi.se/api/version/1.0/parameter/5/station/62020/period/corrected-archive/data.csv
62040;Helsingborg A;56.03;12.77;43;Ja;5-62040-Helsingborg_A.csv;https://opendata-download-metobs.smhi.se/api/version/1.0/parameter/5/station/62040/period/corrected-archive/data.csv
138400;Hemling;63.66;18.53;190;Nej;5-138400-Hemling.csv;https://opendata-download-metobs.smhi.se/api/version/1.0/parameter/5/station/138400/period/corrected-archive/data.csv
138390;Hemling A;63.65;18.55;182.186;Ja;5-138390-Hemling_A.csv;https://opendata-download-metobs.smhi.se/api/version/1.0/parameter/5/station/138390/period/corrected-archive/data.csv
